[[{"HospitalName":"CHAKRABORTY MULTI SPECIALITY HOSPITAL","Address":"DOLLYGUNJ, PORT BLAIR, NEAR T.S.G GRAND HOTEL, ANDAMAN","City":"PORT BLAIR","State":"ANDAMAN AND NICOBAR","ContactNo":"/09679557800","Latitude":"11.6357989","Longitude":"92.7120575"},{"HospitalName":"DR. AGARWALS EYE HOSPITAL LTD","Address":"SURVEY NO.: 32/4, RGT ROAD","City":"PORT BLAIR","State":"ANDAMAN AND NICOBAR","ContactNo":"/03192-243222/03192-244222","Latitude":"11.6639522","Longitude":"92.7438354"}],[{"HospitalName":"KONASEEMA INSTITUTE OF MEDICAL SCIENCE & RESEARCH FOUNDATION","Address":"NH 216 , CHAITANYA NAGAR","City":"AMALAPURAM","State":"ANDHRA PRADESH","ContactNo":"/08856237996/08856237997/0885623998","Latitude":"16.59233","Longitude":"82.0236"}],[{"HospitalName":"ASHA HOSPITALS","Address":"7/201, COURT ROAD","City":"ANANTAPUR","State":"ANDHRA PRADESH","ContactNo":"/0855-4274194/09885807747","Latitude":"14.68113","Longitude":"77.59382"},{"HospitalName":"BABY HOSPITAL","Address":"12-2-885, 2ND CROSS ROAD, BABY COMPLEX, ASHOKNAGAR, SAINAGAR","City":"ANANTAPUR","State":"ANDHRA PRADESH","ContactNo":"/08554-274278","Latitude":"14.6751853","Longitude":"77.6020197"},{"HospitalName":"CARE AND CURE MULTI SPECIALITY HOSPITAL","Address":"13-2-392-4, NTR MARG, NEAR RTC BUS STAND, OPP. SHANTHI NURSING HOME, CARE AND CURE CIRCLE","City":"ANANTAPUR","State":"ANDHRA PRADESH","ContactNo":"/08554-220555/07416684286","Latitude":"14.6879","Longitude":"77.60163"},{"HospitalName":"DR YSR MEMORIAL HOSPITALS","Address":"12-2-878, SAINAGAR 1ST CROSS, NEAR APEX DIAGNOSTICS","City":"ANANTAPUR","State":"ANDHRA PRADESH","ContactNo":"/08554-232727","Latitude":"14.6941362","Longitude":"77.5991921"},{"HospitalName":"DR. AKBAR EYE HOPSITAL PHACO AND LASER","Address":"12-3-234,6TH CROSS, SAI NAGAR, NEAR SAPTAGIRI CIRCLE","City":"ANANTAPUR","State":"ANDHRA PRADESH","ContactNo":"/08554-235009","Latitude":"14.67299","Longitude":"77.60124"},{"HospitalName":"HARSHITHA MULTI SPECIALITY HOSPITALS","Address":"6/3/984, 1ST CROSS, MARUTHI NAGAR","City":"ANANTAPUR","State":"ANDHRA PRADESH","ContactNo":"/08554-243422/09494434422","Latitude":"14.67007","Longitude":"77.59081"},{"HospitalName":"LMR MULTISPECIALITY HOSPITAL","Address":"#13-3-187, NEAR RTC BUS STAND,SRINIVASA NAGAR","City":"ANANTAPUR","State":"ANDHRA PRADESH","ContactNo":"/09703004114","Latitude":"14.6941362","Longitude":"77.5991921"},{"HospitalName":"PAVANI MULTISPECIALITY HOSPITAL","Address":"#12-3-195, 5TH CROSS, SAINAGAR, NEAR VETERINARY HOSPITAL","City":"ANANTAPUR","State":"ANDHRA PRADESH","ContactNo":"/08554-245333/08554-246333/09000121420","Latitude":"14.6941362","Longitude":"77.5991921"},{"HospitalName":"S. V. HOSPITAL","Address":"D. NO. 14-327, KAMALA NAGAR","City":"ANANTAPUR","State":"ANDHRA PRADESH","ContactNo":"/08554-221966/08554-221967","Latitude":"14.6941362","Longitude":"77.5991921"},{"HospitalName":"SAVERA MEDICAL CENTRE","Address":"1-1348, SRINAGAR COLONY EXTENSION, OPP. SHAKSHI OFFICE","City":"ANANTAPUR","State":"ANDHRA PRADESH","ContactNo":"/08554-234234","Latitude":"14.6700004","Longitude":"77.5762703"},{"HospitalName":"SHREYA HOSPITAL","Address":"#13-2-143, SHIRIDI NAGAR, NEAR RTC BUSSTAND","City":"ANANTAPUR","State":"ANDHRA PRADESH","ContactNo":"/08554-224499/09885212706","Latitude":"14.6889253","Longitude":"77.599106"},{"HospitalName":"SNEHALATHA HOSPITALS","Address":"13-3-510, OPP. GANGA GOWRI CINE COMPLEX","City":"ANANTAPUR","State":"ANDHRA PRADESH","ContactNo":"/08554-277077/09441164530","Latitude":"14.6838172","Longitude":"77.6002664"},{"HospitalName":"SR MULTISPECIALITY HOSPITAL","Address":"H.NO.28-1-56, SANGAMESH NAGAR,OPPOSITE INDIAN OIL PETROL PUMP, ANANTHAPURAM","City":"ANANTAPUR","State":"ANDHRA PRADESH","ContactNo":"/08554-249999","Latitude":"14.6715492","Longitude":"77.6067526"},{"HospitalName":"SREE AMARAVATHI MULTISPECIALITY HOSPITAL","Address":"D.NO.11-1-234, 3RD CROSS, ARAVIND NAGAR","City":"ANANTAPUR","State":"ANDHRA PRADESH","ContactNo":"/08554-231567/08554-232567/09441432567/09441223567","Latitude":"14.6708369","Longitude":"77.590312"},{"HospitalName":"SREE NETHRA ENT & EYE CARE HOSPITAL","Address":"SREE LEELA PALACE BUILDING, 3RD CROSS, SAI NAGAR, BEHIND SBI MAIN BRANCH","City":"ANANTAPUR","State":"ANDHRA PRADESH","ContactNo":"/08554-241133","Latitude":"14.6941362","Longitude":"77.5991921"},{"HospitalName":"SREE NIDHI HOSPITAL","Address":"# 12-3-56 & 57, 4TH CROSS, SAINAGAR","City":"ANANTAPUR","State":"ANDHRA PRADESH","ContactNo":"/08554-243377","Latitude":"14.6738769","Longitude":"77.5997178"},{"HospitalName":"SREENIVASA CHILDRENS HOSPITAL","Address":"# 13-3-488, NEAR GANGA GOWRI CINE COMPLEX,  SREEKANTAM","City":"ANANTAPUR","State":"ANDHRA PRADESH","ContactNo":"/08554-241104","Latitude":"14.6913566","Longitude":"77.5957528"},{"HospitalName":"SREENIVASA MULTI SPECIALITY HOSPITAL","Address":"NO. 28-271, NEAR IRON BRIDGE, SUBASH ROAD","City":"ANANTAPUR","State":"ANDHRA PRADESH","ContactNo":"/08886688134","Latitude":"14.680595","Longitude":"77.6135158"},{"HospitalName":"SRI PRAAGNA HOSPITALS & RC","Address":"RAPTHADU, NEAR EENADU OFFICE","City":"ANANTAPUR","State":"ANDHRA PRADESH","ContactNo":"/07416746272","Latitude":"14.6301217","Longitude":"77.618385"},{"HospitalName":"SRI SAI KRUPA NURSING HOME","Address":"10-368, SAROJINI ROAD","City":"ANANTAPUR","State":"ANDHRA PRADESH","ContactNo":"/08554-274564/07729800998","Latitude":"14.6791501","Longitude":"77.5980824"},{"HospitalName":"VASAN EYE CARE HOSPITAL","Address":"15/581, STREET RAJU ROAD","City":"ANANTAPUR","State":"ANDHRA PRADESH","ContactNo":"/0855-408554/0855-222445/0855-302100","Latitude":"14.6941362","Longitude":"77.5991921"}],[{"HospitalName":"CDR HOSPITAL","Address":"7-12/1,TTD KALYANA MANDAPAM ROAD, ANAPARTHI","City":"ANAPARTHI","State":"ANDHRA PRADESH","ContactNo":"/08857-226456","Latitude":"16.930437","Longitude":"81.9515971"}],[{"HospitalName":"IMPERIAL HOSPITALS","Address":"J P ROAD","City":"BHIMAVARAM","State":"ANDHRA PRADESH","ContactNo":"/08816-279999/08816-279988","Latitude":"16.5452532","Longitude":"81.528132"},{"HospitalName":"JNANANANDA RETINA FOUNDATION PVT LTD","Address":"TOWN RAILWAY STATION ROAD, BHIMAVARAM","City":"BHIMAVARAM","State":"ANDHRA PRADESH","ContactNo":"/08816-222381/09951040407","Latitude":"16.54599","Longitude":"81.519379"},{"HospitalName":"KASI EYE HOSPITAL","Address":"D.NO.27-8-12/4, HOTLINES BAKERY ROAD, NEAR MUNICIPAL WATER TANK, JUVVALAPALEM ROAD","City":"BHIMAVARAM","State":"ANDHRA PRADESH","ContactNo":"/08816-233277","Latitude":"16.5425617","Longitude":"81.512815"},{"HospitalName":"OMEGA BHIMAVARAM HOSPITALS","Address":"D.NO.7-32/2,J.P.ROAD","City":"BHIMAVARAM","State":"ANDHRA PRADESH","ContactNo":"/08816-293333,293444","Latitude":"16.5411319","Longitude":"81.4938406"},{"HospitalName":"RADHA KRISHNA NETRALAYA","Address":"D NO 27-11-7/3, RK MANOR, JUVVALAPALEM ROAD","City":"BHIMAVARAM","State":"ANDHRA PRADESH","ContactNo":"/08816-222344/08816-297444","Latitude":"16.5659029","Longitude":"81.5349581"},{"HospitalName":"SAI INDIAN HOSPITALS","Address":"J.P ROAD, NEAR WATER TANK","City":"BHIMAVARAM","State":"ANDHRA PRADESH","ContactNo":"/08816-224555","Latitude":"16.5430331","Longitude":"81.5129381"},{"HospitalName":"VARMA HOSPITALS","Address":"D.NO: 1-7-4/2-1, NEAR ADDAVANTHENA, J.P ROAD","City":"BHIMAVARAM","State":"ANDHRA PRADESH","ContactNo":"/08816-227268/08816-222701/08816-223953","Latitude":"16.5438524","Longitude":"81.5082121"},{"HospitalName":"VINAYAKA HOSPITAL","Address":"#2-6-2, NADIPALLIVARI STREET, OPP. SUNIL CENTRE, JP ROAD","City":"BHIMAVARAM","State":"ANDHRA PRADESH","ContactNo":"/008816-229799","Latitude":"16.54462","Longitude":"81.5127528"}],[{"HospitalName":"PADMAVATHI HOSPITAL","Address":"RAMANAGARAM, CHALLAPALLI MANDAL","City":"CHALLAPALLI","State":"ANDHRA PRADESH","ContactNo":"/08671-222350,222443","Latitude":"16.1155795","Longitude":"80.9298365"}],[{"HospitalName":"RAMAKRISHNA MEMORIAL NURSING HOME","Address":"BHASKAR THEATRE ROAD","City":"CHILAKALURIPET","State":"ANDHRA PRADESH","ContactNo":"/08647-254300","Latitude":"16.0833246","Longitude":"80.1540226"},{"HospitalName":"RK MULTI SPECIALITY HOSPITAL","Address":"D.NO.7-328/1, OPP. NARAYANA SCHOOL, GANDHIPETA, OPP.RAITHU BAZAAR","City":"CHILAKALURIPET","State":"ANDHRA PRADESH","ContactNo":"/08647-258595,258888","Latitude":"16.093636","Longitude":"80.1605117"},{"HospitalName":"SRI KRISHNA NURSING HOME","Address":"ADDA ROAD CENTER, NEAR NH-5, PURUSHOTHAPATNAM","City":"CHILAKALURIPET","State":"ANDHRA PRADESH","ContactNo":"/08647-254300","Latitude":"16.5325134","Longitude":"79.7377192"}],[{"HospitalName":"RAJYALAKSHMI HOSPITAL","Address":"R.R. ROAD","City":"CHIRALA","State":"ANDHRA PRADESH","ContactNo":"/085945-232108","Latitude":"15.8278436","Longitude":"80.3538461"},{"HospitalName":"SKR ICON SUPERSPECIALITY HOSPITAL","Address":"MASJID CENTER","City":"CHIRALA","State":"ANDHRA PRADESH","ContactNo":"/08594-239239/09490964131","Latitude":"15.8423622","Longitude":"80.3491599"}],[{"HospitalName":"AASHRAYA MULTI SPECIALITY HOSPITAL","Address":"1-653/3, BEHIND VINAYAKA TEMPLE, OPP. KALYANAMANDAPAM, KATTAMANCHI","City":"CHITTOOR","State":"ANDHRA PRADESH","ContactNo":"/08572-246544/06301896856","Latitude":"13.2239196","Longitude":"79.1266288"},{"HospitalName":"AK'S AMMA HOSPITAL","Address":"NO: 2,58/1, OFFICERS LINE, BESIDE NEW RTC BUS STAND","City":"CHITTOOR","State":"ANDHRA PRADESH","ContactNo":"/08572-350071/09063263108","Latitude":"13.2180406","Longitude":"79.1043152"},{"HospitalName":"CHANDRA MOHAN NURSING HOME","Address":"14/2A, C.T.M. ROAD, MADANAPALLE","City":"CHITTOOR","State":"ANDHRA PRADESH","ContactNo":"/07039922492","Latitude":"13.5603491","Longitude":"78.5036065"},{"HospitalName":"DR RAMALAKSHMI NURSING HOME","Address":"17-434, LAKSHMI COMPLEX,SUNDARAYAR STREET","City":"CHITTOOR","State":"ANDHRA PRADESH","ContactNo":"/08572-228885","Latitude":"13.217176","Longitude":"79.1003289"},{"HospitalName":"EMERGENCY HOSPITAL","Address":"CTM ROAD, MADANAPALLE","City":"CHITTOOR","State":"ANDHRA PRADESH","ContactNo":"/08571-222469/09848039631","Latitude":"13.5553983","Longitude":"78.5062828"},{"HospitalName":"LIFE LINE HOSPITAL","Address":"#31-177, KANIPAKAM ROAD, REVENU NO. 30, SANTHAPETAN","City":"CHITTOOR","State":"ANDHRA PRADESH","ContactNo":"/09121672929","Latitude":"13.233065","Longitude":"79.0867098"},{"HospitalName":"PESIMSR HOSPITAL","Address":"PESIMSR CAMPUS, NH-219, NALAGAMPALLI","City":"CHITTOOR","State":"ANDHRA PRADESH","ContactNo":"/08570-256666/08570-256655","Latitude":"12.7907181","Longitude":"78.363186"},{"HospitalName":"SNEHA SUPER SPECIALITY HOSPITAL","Address":"DR# 5-5-348, SAROJINI LAYOUT, NEAR SYNDICATE BANK","City":"CHITTOOR","State":"ANDHRA PRADESH","ContactNo":"/0877-2287618/2286346/2286533","Latitude":"13.6396639","Longitude":"79.4109554"},{"HospitalName":"SREE LATHA MODERN EYE HOSPITAL & RESEARCH CENTRE","Address":"2-1251/2, NALANDA NAGAR, B.V. REDDY NAGAR COLONY","City":"CHITTOOR","State":"ANDHRA PRADESH","ContactNo":"/08572-233391/09966098444","Latitude":"13.217176","Longitude":"79.1003289"}],[{"HospitalName":"ANDHRA HOSPITALS(ELURU)PVT LTD","Address":"23A-8-8, BENDAPUDI VARI STREET, R.R.PETA","City":"ELURU","State":"ANDHRA PRADESH","ContactNo":"/07384697941","Latitude":"16.713193","Longitude":"81.1065702"},{"HospitalName":"ASRAM HOSPITAL","Address":"MALKAPURAM","City":"ELURU","State":"ANDHRA PRADESH","ContactNo":"/08812-288288/09491044881/09491044884","Latitude":"16.7106604","Longitude":"81.0952431"},{"HospitalName":"BHUVANESWARI HOSPITALS","Address":"BENDAPUDI VARI STREET, R R PET","City":"ELURU","State":"ANDHRA PRADESH","ContactNo":"/08812-244955","Latitude":"16.7146722","Longitude":"81.0985998"},{"HospitalName":"GOOD SAMARITAN CANCER AND GENERAL HOSPITAL","Address":"D NO 19-61, HOLYSPIRIT SEMINARY, ELURU","City":"ELURU","State":"ANDHRA PRADESH","ContactNo":"/06301099538","Latitude":"16.6942503","Longitude":"81.1113328"},{"HospitalName":"NEW VIJAYA HOSPITALS","Address":"D.NO: 23A-5-9 (42579), MAGANTIVARI STREET,BEHIND PARK STREET","City":"ELURU","State":"ANDHRA PRADESH","ContactNo":"/08812-230500/08985657102","Latitude":"16.7099816","Longitude":"81.0785835"},{"HospitalName":"SWARUPARANI NURSING HOME","Address":"EDARAVARI ST, R.R PET, ELLURU","City":"ELURU","State":"ANDHRA PRADESH","ContactNo":"/08812-230935/09490172935","Latitude":"16.712866","Longitude":"81.1006263"},{"HospitalName":"VIJAYA HOSPITAL","Address":"NEAR PARK, RR PET","City":"ELURU","State":"ANDHRA PRADESH","ContactNo":"/09440184356","Latitude":"16.7135229","Longitude":"81.1009882"}],[{"HospitalName":"DGR HOSPITAL","Address":"08-7-21/21/A, KASI REDDY KUNTA, NARVA ROAD","City":"GIDDALUR","State":"ANDHRA PRADESH","ContactNo":"/08405-242233","Latitude":"15.3789389","Longitude":"78.9311944"}],[{"HospitalName":"EVR SUPER SPECIALITY HOSPITAL","Address":"16/355-B, SATYANARAYANAPURAM, NEAR APSRTC BUS STAND","City":"GUDIVADA","State":"ANDHRA PRADESH","ContactNo":"/09494482727","Latitude":"16.4299823","Longitude":"80.9959705"},{"HospitalName":"KARUNA HOSPITAL","Address":"10/202, ELURU ROAD, NR. SBI ATM","City":"GUDIVADA","State":"ANDHRA PRADESH","ContactNo":"/08309776522","Latitude":"16.4405953","Longitude":"80.9894753"},{"HospitalName":"SREE RAMA NURSING HOME","Address":"10/207-01, ELURU ROAD, GUDIVADA","City":"GUDIVADA","State":"ANDHRA PRADESH","ContactNo":"/08674-244773","Latitude":"16.4351539","Longitude":"80.9880061"},{"HospitalName":"VIVAAN HOSPITALS","Address":"D.NO. 15/48, PARK ROAD, BHAVANAI COMPLEX, NEAR BUS STAND","City":"GUDIVADA","State":"ANDHRA PRADESH","ContactNo":"/09160439996","Latitude":"16.4315183","Longitude":"80.9935735"}],[{"HospitalName":"A1 HOSPITAL","Address":"12-23-32, ANNA SRINIVASARAO KALYANAMANDAPAM, OPP: RTC BUS STAND ROAD, KOTHAPET","City":"GUNTUR","State":"ANDHRA PRADESH","ContactNo":"/0863-2254321","Latitude":"16.2957613","Longitude":"80.4563708"},{"HospitalName":"ADITYA MULTISPECIALITY HOSPITAL","Address":"GUNTURUVARITHOTA, 3RD LINE, OPP. KAMARAJU DIAGNOSTIC CENTER","City":"GUNTUR","State":"ANDHRA PRADESH","ContactNo":"/08885499986","Latitude":"16.3035908","Longitude":"80.4403839"},{"HospitalName":"AMAR ORTHOPAEDIC HOSPITAL","Address":"GUNTURUVARI THOTA, 1ST LINE","City":"GUNTUR","State":"ANDHRA PRADESH","ContactNo":"/08985548097","Latitude":"16.2893144","Longitude":"80.4604643"},{"HospitalName":"AMARAVATHI INSTITUTE OF MEDICAL SCIENCES PVT LTD","Address":"OLD CLUB ROAD, KOTHAPET","City":"GUNTUR","State":"ANDHRA PRADESH","ContactNo":"/0863-2256688","Latitude":"16.2989111","Longitude":"80.452604"},{"HospitalName":"AMERICAN ONCOLOGY INSTITUTE","Address":"DR. NO. 18-08, OPP FCT GODOWN, PEDAKAKANI","City":"GUNTUR","State":"ANDHRA PRADESH","ContactNo":"/00863-6791100","Latitude":"16.3401979","Longitude":"80.491047"},{"HospitalName":"AMERICAN ONCOLOGY INSTITUTE","Address":"CHINAKAKANI, AT NRI HOSPITAL CAMPUS, MANGALAGIRI","City":"GUNTUR","State":"ANDHRA PRADESH","ContactNo":"/040-67199777/ 0866-2442440","Latitude":"16.4163937","Longitude":"80.5533745"},{"HospitalName":"AMRUTHA HOSPITALS","Address":"OLD CLUB ROAD, KOTHAPET","City":"GUNTUR","State":"ANDHRA PRADESH","ContactNo":"/0863-2210123","Latitude":"16.2989869","Longitude":"80.4490232"},{"HospitalName":"BAYYA ENT HOSPITAL AND RESEARCH CENTRE","Address":"BHAGAT SINGH STATUE CENTRE, KOTHAPETA","City":"GUNTUR","State":"ANDHRA PRADESH","ContactNo":"/0863-2225729/09642089307","Latitude":"15.8156584","Longitude":"80.3666308"},{"HospitalName":"BLOSSOMS CHILDRENS HOSPITAL","Address":"D.NO: 13-5-97, OLD CLUB ROAD, GUNTURIVARITHOTA, KOTHAPET","City":"GUNTUR","State":"ANDHRA PRADESH","ContactNo":"/0863-2222335/0863-2222339","Latitude":"16.2990634","Longitude":"80.4507311"},{"HospitalName":"DHULIPALLA HOSPITAL PVT LTD","Address":"OPP SHIVALAYAM, KOTHAPET","City":"GUNTUR","State":"ANDHRA PRADESH","ContactNo":"/0863-2220461/0863-2225411/09849085660/09948517332","Latitude":"16.2893144","Longitude":"80.4604643"},{"HospitalName":"DR. AGARWALS EYE HOSPITAL LTD","Address":"DOOR NO 13-2-71, OLD CLUB ROAD, KOTHAPET","City":"GUNTUR","State":"ANDHRA PRADESH","ContactNo":"/08636636637/08636636638","Latitude":"16.2990634","Longitude":"80.4507311"},{"HospitalName":"DR. RAMESH CARDIAC AND MULTISPECIALITY HOSPITAL PVT LTD.","Address":"BESIDE HINDU COLLEGE GROUNDS, COLLECTOR OFFICE ROAD","City":"GUNTUR","State":"ANDHRA PRADESH","ContactNo":"/0863-2377777/09848672494","Latitude":"16.2934044","Longitude":"80.372373"},{"HospitalName":"DVC HOSPITAL & RESEARCH CENTRE","Address":"# 12-290, VADLAMUDI VILLAGE, CHEBROLU MANDAL","City":"GUNTUR","State":"ANDHRA PRADESH","ContactNo":"/0863-2387777/07095744555/07095844555","Latitude":"16.2378934","Longitude":"80.5542024"},{"HospitalName":"GUNTUR CITY HOSPITALS","Address":"DOOR NO12-12-83, MUKKU PICHHI REDDY COMPLEX, OLD CLUB RAOD, KOTHAPET","City":"GUNTUR","State":"ANDHRA PRADESH","ContactNo":"/0863-2237337","Latitude":"16.2989111","Longitude":"80.452604"},{"HospitalName":"GUNTUR KIDNEY & MULTI SPECIALITY HOSPITAL","Address":"NO. 15-11-1/10, MANGALAGIRI ROAD, NEAR PADMAJA PETROL BUNK","City":"GUNTUR","State":"ANDHRA PRADESH","ContactNo":"/0772-9988283","Latitude":"16.3044616","Longitude":"80.459411"},{"HospitalName":"HELP HOSPITAL","Address":"4TH LINE ARUNDELPET","City":"GUNTUR","State":"ANDHRA PRADESH","ContactNo":"/0863-2265559/0863-6454555","Latitude":"16.2905836","Longitude":"80.445081"},{"HospitalName":"HOPE WIN HOSPITALS","Address":"GUNTURVARI THOTA, 7TH LINE, OLD CLUD ROAD, BESIDE LIFE HOSPTIAL LINE, KOTHAPET","City":"GUNTUR","State":"ANDHRA PRADESH","ContactNo":"/09703469700/09697999940","Latitude":"16.296269","Longitude":"80.4485318"},{"HospitalName":"HYMA HOSPITALS (P) LTD","Address":"D.NO 3-14-20, MAIN ROAD, SWAMI THEATRE,PATTABHIPURAM","City":"GUNTUR","State":"ANDHRA PRADESH","ContactNo":"/0863-2231564","Latitude":"16.3200138","Longitude":"80.4097937"},{"HospitalName":"JAYATHI KRISHNA HOSPITAL","Address":"NEAR RTC BUS STAND, OLD CLUB ROAD","City":"GUNTUR","State":"ANDHRA PRADESH","ContactNo":"/0863 232 5434","Latitude":"16.2957613","Longitude":"80.4563708"},{"HospitalName":"JOSHITHA MOTHER AND CHILDREN HOSPITAL","Address":"BHARATHPE, 1ST LINE, AMARAVATHI ROAD","City":"GUNTUR","State":"ANDHRA PRADESH","ContactNo":"/0240-6632111","Latitude":"16.3142271","Longitude":"80.4359678"},{"HospitalName":"KANUMURI HOSPITALS","Address":"D.NO.12-1-23, SANAKKAYALA FACTORY ROAD, NEAR RAILWAY UNDER BRIDGE, KOTHAPET","City":"GUNTUR","State":"ANDHRA PRADESH","ContactNo":"/0863-2333000/09849532080","Latitude":"16.302079","Longitude":"80.4464573"},{"HospitalName":"KARUMURI SUPER SPECIALITY HOSPITAL PVT LTD","Address":"OLD CLUB ROAD, 13-4-73, KOTHAPETA","City":"GUNTUR","State":"ANDHRA PRADESH","ContactNo":"/0863-2222200/09989587152","Latitude":"16.2893144","Longitude":"80.4604643"},{"HospitalName":"KATURI MEDICAL COLLEGE & HOSPITAL","Address":"KATURI NAGAR, EDULAPALEM","City":"GUNTUR","State":"ANDHRA PRADESH","ContactNo":"/080-26562777/080-26563973","Latitude":"16.2272856","Longitude":"80.3065497"},{"HospitalName":"LALITHA SUPER SPECIALITY HOSPITAL PVT LTD","Address":"KOTHAPET ,GUNTUR","City":"GUNTUR","State":"ANDHRA PRADESH","ContactNo":"/0863-2222866/09440800357","Latitude":"16.2941029","Longitude":"80.4488307"},{"HospitalName":"MALLIKA HOSPITALS","Address":"OLD CLUB ROAD, KOTHAPETA, GUNTUR","City":"GUNTUR","State":"ANDHRA PRADESH","ContactNo":"/0863-2251600/07093399444","Latitude":"16.2985599","Longitude":"80.4498677"},{"HospitalName":"MN HOSPITAL","Address":"5-37-77, 4/10 , BESIDES SBI, BRODIPET","City":"GUNTUR","State":"ANDHRA PRADESH","ContactNo":"/0863-2217171","Latitude":"16.3041291","Longitude":"80.4340429"},{"HospitalName":"MYTHRI MULTISPECIALITY HOSPITAL","Address":"ITUKA BATTILA ROAD, BESIDES MANIPURAM RAILWAY FLY OVER, NEAR BUS STAND","City":"GUNTUR","State":"ANDHRA PRADESH","ContactNo":"/0863-2200222/0738210022","Latitude":"16.3017014","Longitude":"16.3017014"},{"HospitalName":"NARAYANA SUPERSPECIALITY HOSPITAL","Address":"D.NO 12-12-93,DR. JYOTHI KAMPRASAD BUILDING, OLD CLUB ROAD, KOTHAPET,","City":"GUNTUR","State":"ANDHRA PRADESH","ContactNo":"/0954243227","Latitude":"16.2990533","Longitude":"80.4485323"},{"HospitalName":"NRI MEDICAL COLLEGE & GENERAL HOSPITAL","Address":"CHINAKAKANI, MANGALAGIRI MANDAL","City":"GUNTUR","State":"ANDHRA PRADESH","ContactNo":"/08645-230101,230102","Latitude":"16.4135752","Longitude":"80.5531016"},{"HospitalName":"NUHA HOSPITALS","Address":"D NO:12-19-61 & 62, OLD BANK ROAD, KOTHAPET","City":"GUNTUR","State":"ANDHRA PRADESH","ContactNo":"/0863-2255559/07036002657","Latitude":"16.2973966","Longitude":"80.4484819"},{"HospitalName":"OMEGA HOSPITALS","Address":"D. NO. 55-1-11, MEHER NAGAR, BACK SIDE OF MEHER BABA TEMPLE, AUTONAGAR","City":"GUNTUR","State":"ANDHRA PRADESH","ContactNo":"/0863-2223300","Latitude":"16.2948373","Longitude":"80.4557503"},{"HospitalName":"PADMAVATHY SUPER SPECIALITY HOSPITAL","Address":"KOTHAPET, GUNTUR","City":"GUNTUR","State":"ANDHRA PRADESH","ContactNo":"/0863-2222222/09666340333","Latitude":"17.3730192","Longitude":"78.547636"},{"HospitalName":"PEOPLES TRAUMA AND EMERGENCY HOSPITAL","Address":"OLD CLUB ROAD, KOTHAPET","City":"GUNTUR","State":"ANDHRA PRADESH","ContactNo":"/0863-2220038","Latitude":"16.2861218","Longitude":"80.4462117"},{"HospitalName":"PROF. D. RAMAKOTAIAH CHILDRENS HOSPITAL","Address":"OPP GANESH MAHAL, OLD BUS STAND ROAD","City":"GUNTUR","State":"ANDHRA PRADESH","ContactNo":"/0863-2254477","Latitude":"17.3730192","Longitude":"78.547636"},{"HospitalName":"R K EYE CENTER","Address":"OPP SRI KRISHNA PICTURE PALACE, KOTHAPET","City":"GUNTUR","State":"ANDHRA PRADESH","ContactNo":"/0863-2252205/09440835115","Latitude":"17.3730192","Longitude":"78.547636"},{"HospitalName":"RAVINDRA MULTISPECIALITY HOSPITAL","Address":"D.NO.12-19-44, BESIDE MAX, DIAGNOSTIC CENTER, OLD BANK ROAD, KOTHAPET","City":"GUNTUR","State":"ANDHRA PRADESH","ContactNo":"/0863-2223888/09885835888/08886842222","Latitude":"16.2975622","Longitude":"80.4489551"},{"HospitalName":"SAILAJA HOSPITAL","Address":"NEAR BUS STAND, GUNTURVARI THOTA 1ST LINE, OPP RTC BUS STAND ROAD","City":"GUNTUR","State":"ANDHRA PRADESH","ContactNo":"/0863-2231700","Latitude":"16.3001509","Longitude":"80.4436922"},{"HospitalName":"SAMISHTA HOSPITAL & RESEARCH INSTITUTE","Address":"KAKUMANU VARI THOTA, 4TH LINE, DONKA ROAD","City":"GUNTUR","State":"ANDHRA PRADESH","ContactNo":"/0863-2213999","Latitude":"16.3051677","Longitude":"80.4431246"},{"HospitalName":"SANJEEVANI PEBLS","Address":"D.NO:12-23-32, PUVVADA VARI STREET, KOTHAPETA","City":"GUNTUR","State":"ANDHRA PRADESH","ContactNo":"/0863-2336638","Latitude":"16.2861218","Longitude":"80.4462117"},{"HospitalName":"SANJIVI ORTHOPAEDIC & PHYSIOTHERAPY CENTER","Address":"41 LAKSHMI PURAM","City":"GUNTUR","State":"ANDHRA PRADESH","ContactNo":"/0863-2241644/0863-2328792","Latitude":"16.3227838","Longitude":"80.4317424"},{"HospitalName":"SRAVANI HOSPITAL","Address":"DOOR NO: 13-1-16, KOTHAPET","City":"GUNTUR","State":"ANDHRA PRADESH","ContactNo":"/09490960049","Latitude":"16.2974249","Longitude":"80.4511891"},{"HospitalName":"SREE PRATHIMA SUPER SPECIALITY HOSPITAL","Address":"NO. 12-1-648, RAMIREDDY THOTA, BESIDE MANIPURAM BRIDGE, NEAR GUNTUR BUS STAND","City":"GUNTUR","State":"ANDHRA PRADESH","ContactNo":"/0863-2353255","Latitude":"16.2947788","Longitude":"80.4557569"},{"HospitalName":"SREE SANKALPA MULTI SPECIALITY HOSPITAL","Address":"GUNTURUVARITHOTA 8TH LINE, KOTHAPETA","City":"GUNTUR","State":"ANDHRA PRADESH","ContactNo":"/09988842111/09988852111","Latitude":"16.2974979","Longitude":"80.4526939"},{"HospitalName":"SRI BALAJI HOSPITALS","Address":"NO. 51-22-526, YADAVALIVARI STREET","City":"GUNTUR","State":"ANDHRA PRADESH","ContactNo":"/0863-2322355","Latitude":"16.2861218","Longitude":"80.4462117"},{"HospitalName":"SRI KRISHNA MULTI SPECIALITY HOSPITAL","Address":"13-2-71, GUNTURUVARITHOTA, KOTHAPET","City":"GUNTUR","State":"ANDHRA PRADESH","ContactNo":"/08074650434","Latitude":"16.2861218","Longitude":"80.4462117"},{"HospitalName":"SRI SATISH NURSING HOME","Address":"NEAR CHANADA BROTHERS BUS STOP, MARELLAVARI STREET","City":"GUNTUR","State":"ANDHRA PRADESH","ContactNo":"/09849053442","Latitude":"16.0924301","Longitude":"80.1623948"},{"HospitalName":"ST. JOSEPHS HOSPITAL","Address":"OPP. A.C. COLLEGE","City":"GUNTUR","State":"ANDHRA PRADESH","ContactNo":"/08632-320617/08632-229083/09493819977","Latitude":"15.8519086","Longitude":"78.2673891"},{"HospitalName":"STAR HOSPITAL","Address":"BLOCK NO 3, MANGALAMANDIRAM COMPOUND, OLD CLUB ROAD, OPP PEOPLES TRAUMA HOSPITAL, KOTHAPET","City":"GUNTUR","State":"ANDHRA PRADESH","ContactNo":"/0863-2268881","Latitude":"16.2990031","Longitude":"80.4516343"},{"HospitalName":"SURAKSHA HOSPITALS( APJ DOCTORS LLP)","Address":"D.NO 13-8-138, 8 TH LANE, NEAR GUNTUR BUS STAND GUNTURUVARI THOTA, KOTHAPELANE","City":"GUNTUR","State":"ANDHRA PRADESH","ContactNo":"/0863-2222286","Latitude":"16.2992005","Longitude":"80.4503599"},{"HospitalName":"VASAN EYE CARE HOSPITAL","Address":"12-25-174, OPP. SHIVALAYAM, KOTHAPET","City":"GUNTUR","State":"ANDHRA PRADESH","ContactNo":"/0863-3989000/09848661130","Latitude":"16.2893144","Longitude":"80.4604643"},{"HospitalName":"VEDANTA HOSPITALS","Address":"15-11-154, BESIDE OF VASAVI CLOTH MARKET, MANGALAGIRI ROAD","City":"GUNTUR","State":"ANDHRA PRADESH","ContactNo":"/0863-2227277/0863-2229277","Latitude":"16.3071471","Longitude":"80.4613193"},{"HospitalName":"YERRAS SUPER SPECIALITY HOSPITAL","Address":"D. NO. 12-3-23, ANNA SRINIVASA RAO, KALYANAMADAPAM ROAD, BHAGAT SINGH CENTER, KOTHAPET","City":"GUNTUR","State":"ANDHRA PRADESH","ContactNo":"/0863-2223181","Latitude":"17.3730192","Longitude":"78.547636"}],[{"HospitalName":"BALAJI MULTI SPECIALITY HOSPITAL","Address":"SY NO ,10,14,15, R P G T ROAD, ANANTAPUR DISTRICT, NEAR MOSQ","City":"HINDUPUR","State":"ANDHRA PRADESH","ContactNo":"/09553555143","Latitude":"13.8346907","Longitude":"77.4918857"},{"HospitalName":"TEJA NURSING HOME","Address":"D.NO-17-4-3/3, RPGT ROAD, NEAR MASQ","City":"HINDUPUR","State":"ANDHRA PRADESH","ContactNo":"/08556-225411","Latitude":"13.8266271","Longitude":"77.4902726"}],[{"HospitalName":"KARTHIKEYA MULTI SPECIALITY HOSPITAL","Address":"D.NO:3-212/2, NH-16, NEELADRIRAOPETA, JAGGAMPETA","City":"JAGGAMPETA","State":"ANDHRA PRADESH","ContactNo":"/0931131013/09581388659","Latitude":"17.1728208","Longitude":"82.0519005"}],[{"HospitalName":"VIJAYA HOSPITALS EYE CARE","Address":"D.NO: 12-60, VIJAYA KRISHNA RESIDENCY, LOTUS LAY OUT VEGAVARAM PANCHAYATHI","City":"JANGAREDDYGUDEM","State":"ANDHRA PRADESH","ContactNo":"/08985104307/09292657107","Latitude":"16.2361796","Longitude":"79.0706081"}],[{"HospitalName":"VIJAYA HOSPITALS EYE CARE","Address":"D.NO: 12-60, VIJAYA KRISHNA RESIDENCY, LOTUS LAY OUT VEGAVARAM PANCHAYATHI","City":"JANGAREDDYGUDEM","State":"ANDHRA PRADESH","ContactNo":"/08985104307/09292657107","Latitude":"16.2361796","Longitude":"79.0706081"}],[{"HospitalName":"ALBERTA INTERNATIONAL EYE HOSPITAL","Address":"69-18-2/1, WARD NO 29, BESIDE LALITHA NAGAR PARK","City":"KAKINADA","State":"ANDHRA PRADESH","ContactNo":"/0884-2344255/0884-2366255","Latitude":"16.9969273","Longitude":"82.2230125"},{"HospitalName":"APOLLO HOSPITAL","Address":"13-1-3, MAIN ROAD, KAKINADA","City":"KAKINADA","State":"ANDHRA PRADESH","ContactNo":"/0884-2302714","Latitude":"16.9533352","Longitude":"82.2344442"},{"HospitalName":"CITY HOSPITAL","Address":"9-57, SNEHAPURI COLONY, RAMANAYYAPETA","City":"KAKINADA","State":"ANDHRA PRADESH","ContactNo":"/09550326726","Latitude":"17.7171836","Longitude":"79.3683485"},{"HospitalName":"DHRUSTI EYE HOSPITAL","Address":"D.NO:67-1-1/B, NEAR S.V. RANGA RAO STATUE, L.B NAGAR","City":"KAKINADA","State":"ANDHRA PRADESH","ContactNo":"/08367098999","Latitude":"16.9861841","Longitude":"82.2342137"},{"HospitalName":"DR. VEERRAJU NURSING HOME","Address":"NEAR KAKINADA PUBLIC SCHOOL, VALASAPAKALA","City":"KAKINADA","State":"ANDHRA PRADESH","ContactNo":"/0884-2383636","Latitude":"16.9993735","Longitude":"82.2562652"},{"HospitalName":"INODAYA HOSPITALS","Address":"7-7-7/11, NFCL ROAD, NAGAMALLITHOTA JUNCTION","City":"KAKINADA","State":"ANDHRA PRADESH","ContactNo":"/09652041007","Latitude":"16.9482342","Longitude":"82.2528975"},{"HospitalName":"KUSUMA HOSPITALS","Address":"7-7-5/4, NEAR TOWN RAILWAY STATION, RAMARAOPETA, KAKINADA, EAST GODAVARI DT","City":"KAKINADA","State":"ANDHRA PRADESH","ContactNo":"/0884-2376229","Latitude":"16.9631095","Longitude":"82.2337971"},{"HospitalName":"MAURYA HOSPITAL","Address":"D NO 19-7-21, MANTRIPRAGADA VARI STREET","City":"KAKINADA","State":"ANDHRA PRADESH","ContactNo":"/09444888369","Latitude":"18.0339819","Longitude":"79.6286963"},{"HospitalName":"MEDICAL SPECIALITIES HOSPITAL","Address":"D.NO.22-1-29/1, PR COLLEGE ROAD","City":"KAKINADA","State":"ANDHRA PRADESH","ContactNo":"/0884-2377163,2379144","Latitude":"16.9564116","Longitude":"82.2279708"},{"HospitalName":"MEDICOVER HOSPITALS","Address":"3-119, A.D.B ROAD, PANASAPADU, KAKINADA","City":"KAKINADA","State":"ANDHRA PRADESH","ContactNo":"/0884-2370777","Latitude":"17.0156858","Longitude":"82.2485492"},{"HospitalName":"MOTHER  AND CHILD HOSPITAL","Address":"2-4-10, NEAR SURUCHI SWEET STALL, BEHIND PADMAPRIVA THEATRE, BHANUGUDI JUNCTION","City":"KAKINADA","State":"ANDHRA PRADESH","ContactNo":"/08919498288","Latitude":"16.9716831","Longitude":"82.2528975"},{"HospitalName":"NAYANA EYE CARE","Address":"2-1-50, WEST OF JAMMABHOOMI PARK,BHANUGUDI JUNCTION, SRINAGAR","City":"KAKINADA","State":"ANDHRA PRADESH","ContactNo":"/09491199000/07386099000/07416599000","Latitude":"16.9727923","Longitude":"82.2382135"},{"HospitalName":"NEUROSTAR MULTISPECIALITY HOSPITAL","Address":"67-19-1, OPP TO ASHRAM SCHOOL, CLOCK TOWER, NAGAMALLITHOTA JUNCTION","City":"KAKINADA","State":"ANDHRA PRADESH","ContactNo":"/09121476777/09121476999","Latitude":"16.9864872","Longitude":"82.2372434"},{"HospitalName":"PULSE EMERGENCY HOSPITAL","Address":"1-15-3/1, SRIRAMNAGAR, BEHIND LANE KALYANI RESTAURANT","City":"KAKINADA","State":"ANDHRA PRADESH","ContactNo":"/0884-2348889/0884-2342889","Latitude":"16.9716831","Longitude":"82.2528975"},{"HospitalName":"SAI SUDHA HOSPITAL","Address":"NO. 21-1-24, JAWAHAR STREET, BALAJI CHERUVU, SALIEPETA","City":"KAKINADA","State":"ANDHRA PRADESH","ContactNo":"/0884-2631155/0884-2376634/0884-2376635/0884-2345979","Latitude":"16.9482342","Longitude":"82.2528975"},{"HospitalName":"SREE BALA NURSING HOME","Address":"2-2-24, DANTUVARI STREET, KAKINADA","City":"KAKINADA","State":"ANDHRA PRADESH","ContactNo":"/0884-2368699/09866227818","Latitude":"16.9588772","Longitude":"82.2345972"},{"HospitalName":"SRI AKSHARA HOSPITALS","Address":"7-9-4, NEAR VETERINARY  HOSPITAL TOWN, RAILWAT STATION ROAD, SAMBAMURTHY STREET","City":"KAKINADA","State":"ANDHRA PRADESH","ContactNo":"/09989103082","Latitude":"16.9653971","Longitude":"82.2294805"},{"HospitalName":"SURYA GLOBAL HOSPITAL PVT LTD","Address":"NEAR RAILWAY CROSSING, SAMALKOT ROAD, MADHAVA PATNAM","City":"KAKINADA","State":"ANDHRA PRADESH","ContactNo":"/0884-2326001/0884-2326002","Latitude":"16.9890648","Longitude":"82.2474648"},{"HospitalName":"TRUST HOSPITAL","Address":"D.NO. 3-29, SARPAVARAM JUNCTION, KAKINADA","City":"KAKINADA","State":"ANDHRA PRADESH","ContactNo":"/0884-2388801/0884-2382381","Latitude":"16.9890648","Longitude":"82.2474648"},{"HospitalName":"VASAN EYE CARE HOSPITAL","Address":"6-1-37, NOOKALAMMA TEMPLE STREET, SURYARAOPET","City":"KAKINADA","State":"ANDHRA PRADESH","ContactNo":"/0884-3989000","Latitude":"16.9383061","Longitude":"82.2230125"},{"HospitalName":"VISION EMERGENCY & MULTISPECILITY HOSPITAL","Address":"NAGAMALLI THOTA JUNCTION, KAKINADA","City":"KAKINADA","State":"ANDHRA PRADESH","ContactNo":"/0884-3500048/08485986859","Latitude":"16.9850127","Longitude":"82.238752"}],[{"HospitalName":"DR. KOTAREDDY MULTI SPECIALITY HOSPITAL","Address":"10-3-87, KOTAREDDY NAGAR","City":"KANDUKUR","State":"ANDHRA PRADESH","ContactNo":"/08598-222800","Latitude":"15.2145118","Longitude":"79.9033458"},{"HospitalName":"MUPPA ROSAIAH HOSPITAL","Address":"19-1-53, NEAR PANCHAYATH RAJ OFFICE","City":"KANDUKUR","State":"ANDHRA PRADESH","ContactNo":"/091-08598223123","Latitude":"15.2041387","Longitude":"79.9416549"}],[{"HospitalName":"DR. PRAVEEN HOSPITAL","Address":"4TH LANE, CHRISTIANPETA","City":"KAVALI","State":"ANDHRA PRADESH","ContactNo":"/08626-243436/07660823367","Latitude":"14.9117681","Longitude":"79.9883685"},{"HospitalName":"LATHA THALLI PILLALA HOSPITAL","Address":"10/23/2010/D, CHRISTIANPET 3RD LANE, KAVALI","City":"KAVALI","State":"ANDHRA PRADESH","ContactNo":"/08626-243377","Latitude":"14.9131806","Longitude":"79.9929798"},{"HospitalName":"USHA NURSING HOME","Address":"5-1-28, GURRAMVARI STREET, KAVALI","City":"KAVALI","State":"ANDHRA PRADESH","ContactNo":"/08626-245111","Latitude":"14.9197431","Longitude":"79.9929782"}],[{"HospitalName":"AGRASENI HOSPITAL","Address":"46-1-BK ST 504,  SAPTHAGIRI NAGAR, NEAR NEW AYYAPPA SWAMY TEMPLE","City":"KURNOOL","State":"ANDHRA PRADESH","ContactNo":"/08518-221239/08518-231239","Latitude":"15.8147458","Longitude":"78.0397802"},{"HospitalName":"CN HOSPITAL","Address":"BIRLA COMPOUND, B CAMP","City":"KURNOOL","State":"ANDHRA PRADESH","ContactNo":"/08518-233377/08518-230377","Latitude":"15.8072444","Longitude":"78.0399209"},{"HospitalName":"GELIVI NURSING HOME","Address":"3-155, BYRMAL STREET, NANDYAL","City":"KURNOOL","State":"ANDHRA PRADESH","ContactNo":"/0851-4242846/09440290846/09441580649","Latitude":"15.4890736","Longitude":"78.4836387"},{"HospitalName":"GNR HOSPITAL","Address":"50/760/A7, GAYATHRI ESTATE","City":"KURNOOL","State":"ANDHRA PRADESH","ContactNo":"/09440503249","Latitude":"15.812759","Longitude":"78.0354608"},{"HospitalName":"GOWRI GOPAL HOSPITALS PVT LTD","Address":"WOODLANDS COMPLEX, BUDHAVARAPETA","City":"KURNOOL","State":"ANDHRA PRADESH","ContactNo":"/08518-255499/EXTN.248/09030776487","Latitude":"15.8211293","Longitude":"78.0417375"},{"HospitalName":"MADHUMANI NURSING HOME","Address":"BALAJI COMPLEX, NANDYAL","City":"KURNOOL","State":"ANDHRA PRADESH","ContactNo":"/08514-249665/09885315795","Latitude":"15.4877679","Longitude":"78.4858499"},{"HospitalName":"MEDICOVER HOSPITALS - KURNOOL","Address":"SITE NO. 419, OPP. EDIGA, NEAR NEW RTC BUS STAND","City":"KURNOOL","State":"ANDHRA PRADESH","ContactNo":"/08008104166","Latitude":"15.7987705","Longitude":"78.0338078"},{"HospitalName":"MODREN EYE HOSPITAL & RESEARCH CENTRE","Address":"50-760-A-127-2-A, GAYATRI ESTATE, BEHIND SATYANAYANA SWAMY TEMPLE","City":"KURNOOL","State":"ANDHRA PRADESH","ContactNo":"/08518-235050/09640087200","Latitude":"15.8134415","Longitude":"78.0202936"},{"HospitalName":"NOBLE MULTI SPECIALITY HOSPITAL","Address":"40-29P1, PARK ROAD, OPP. KURNOOL MUNICIPAL OFFICE","City":"KURNOOL","State":"ANDHRA PRADESH","ContactNo":"/08518-228158/0901484856","Latitude":"15.8382894","Longitude":"78.043795"},{"HospitalName":"OMEGA HOSPITALS","Address":"PLOT NO 173 & 178 , MARUTHI NAGAR, NDK ROAD, JUDICIAL COONY","City":"KURNOOL","State":"ANDHRA PRADESH","ContactNo":"/08518-273001","Latitude":"15.7847523","Longitude":"78.0148394"},{"HospitalName":"OMNI HOSPITALS","Address":"4/96-45-1, BUDHAWAR PETA, BESIDE RAITHU BAZAR , OPP GOVT MEDICAL COLLEGE","City":"KURNOOL","State":"ANDHRA PRADESH","ContactNo":"/08518-277188","Latitude":"15.8226537","Longitude":"78.0403635"},{"HospitalName":"RSR ENT SUPER SPECIALITY HOSPITAL","Address":"D NO 50/760-A-56-B-1, VIJAYA DIAGNOSTIC LANE, GAYATHRI ESTATES","City":"KURNOOL","State":"ANDHRA PRADESH","ContactNo":"/07741973792","Latitude":"15.8134964","Longitude":"78.0372593"},{"HospitalName":"SAI MEGHA MULTI SPECIALITY HOSPITAL","Address":"87/1243-1, NAGIREDDY COLONY.","City":"KURNOOL","State":"ANDHRA PRADESH","ContactNo":"/06305809586","Latitude":"15.8014229","Longitude":"78.0462212"},{"HospitalName":"SAI VANI HOSPITAL","Address":"25-394/D5, DANIELPURAM, HOSEPH CHURCH, NANDYAL","City":"KURNOOL","State":"ANDHRA PRADESH","ContactNo":"/08514-240266/09985090966","Latitude":"15.4860151","Longitude":"78.47642"},{"HospitalName":"SANJEEVANI HEALTH CARE","Address":"SY NO. 201/2A2, OPP. THUNGA BHADRA PUMP HOUSE","City":"KURNOOL","State":"ANDHRA PRADESH","ContactNo":"/09502126464","Latitude":"15.822469","Longitude":"78.0394736"},{"HospitalName":"SIRI NOBLE HOSPITAL","Address":"#44-16-G45,SUNKESULA ROAD","City":"KURNOOL","State":"ANDHRA PRADESH","ContactNo":"/9502126464","Latitude":"15.8414657","Longitude":"78.0309259"},{"HospitalName":"SREE ASHWINI HOSPITALS","Address":"GAYATHRI ESTATES","City":"KURNOOL","State":"ANDHRA PRADESH","ContactNo":"/08518-230498/08518-230499","Latitude":"15.8281257","Longitude":"78.0372792"},{"HospitalName":"SRI SAI SATYA HOSPITAL","Address":"DOOR NO.46/1SS-1, SAPTHAGIRI NAGAR, JOHARAPURAM ROAD","City":"KURNOOL","State":"ANDHRA PRADESH","ContactNo":"/08518-27989","Latitude":"15.8132618","Longitude":"78.0609138"},{"HospitalName":"SRI VAMSI KRISHNA HOSPITAL","Address":"NEAR KC CANAL, ASHOK NAGAR","City":"KURNOOL","State":"ANDHRA PRADESH","ContactNo":"/09398300586","Latitude":"15.8377577","Longitude":"78.0327354"},{"HospitalName":"SUSEELA NETRALAYA AND MATERNITY HOSPITAL","Address":"D.NO 46/89/11, LAXMI GANESH NAGAR, NEAR WOOD LANDS HOTEL, BUDHAWAR PETA","City":"KURNOOL","State":"ANDHRA PRADESH","ContactNo":"/08518-255178/08518-255446/09701885999","Latitude":"19.8642177","Longitude":"75.3138863"},{"HospitalName":"SWAMI SUPER SPECIALITY NETRALAYAM & SKIN CARE CENTRE","Address":"BESIDE SATYASAI KALYANAMANDAPAM, SANJEEVA NAGAR, NANDYAL","City":"KURNOOL","State":"ANDHRA PRADESH","ContactNo":"/08514-225999/09849662662","Latitude":"15.485352","Longitude":"78.479746"},{"HospitalName":"VASAN EYE CARE HOSPITAL","Address":"H.NO. 46/87/57-1, KAMI SETTY ACRADE, WOODLAND COMPOUND, BHUDWARAPET","City":"KURNOOL","State":"ANDHRA PRADESH","ContactNo":"/08518-302000","Latitude":"15.8281257","Longitude":"78.0372792"},{"HospitalName":"VISWA BHARATHI SUPER SPECIALITY HOSPITAL","Address":"NO 4/2, GAYATHREE ESTATE","City":"KURNOOL","State":"ANDHRA PRADESH","ContactNo":"/08518-229966/09949557512","Latitude":"15.8127563","Longitude":"78.0388015"}],[{"HospitalName":"ANDHRA HOSPITALS-MACHILIPATNAM","Address":"D.NO: 4/124,125, RAJUPET, KRISHNA DIST","City":"MACHILIPATNAM","State":"ANDHRA PRADESH","ContactNo":"/08672-221199/08466996284","Latitude":"16.17622","Longitude":"81.12303"},{"HospitalName":"BRUNDHAVAN NURSING HOME","Address":"DR.B.KESAVA KRISHNA, BRUNDAVAN NURSING HOME, RAJAVARI CENTRE, MACHILIPATNAM","City":"MACHILIPATNAM","State":"ANDHRA PRADESH","ContactNo":"/08672-222295/09849360560","Latitude":"16.5061743","Longitude":"80.6480153"},{"HospitalName":"DEVI HOSPITAL","Address":"D.NO:26/376-1,OPP LADY AMPTHILL COLLEGE,BUTTAIPET,MACHILIPATNAM","City":"MACHILIPATNAM","State":"ANDHRA PRADESH","ContactNo":"/7088002619","Latitude":"16.1793604","Longitude":"81.1350628"},{"HospitalName":"JAGANNADHA HOSPITAL","Address":"D.NO.1/26-1-11, BESIDE BUS STAND, OPP. VEGETABLE MARKET, MAIN ROAD, PEDANA","City":"MACHILIPATNAM","State":"ANDHRA PRADESH","ContactNo":"/08672-248119/08672-295571","Latitude":"16.2147166","Longitude":"81.1015348"},{"HospitalName":"LAKSHMI WOMENS HOSPITAL","Address":"D.NO:23/399, RAMANAIDUPET","City":"MACHILIPATNAM","State":"ANDHRA PRADESH","ContactNo":"/08672-220004","Latitude":"16.3446391","Longitude":"80.7525863"},{"HospitalName":"SRI KALI NURSING HOME","Address":"PEDANA","City":"MACHILIPATNAM","State":"ANDHRA PRADESH","ContactNo":"/08672-248313","Latitude":"16.2903439","Longitude":"81.1526976"},{"HospitalName":"SRINIVASA NURSING HOME","Address":"GODUGUPETA, MACHILIPATNAM","City":"MACHILIPATNAM","State":"ANDHRA PRADESH","ContactNo":"/08672-223450","Latitude":"18.5806842","Longitude":"77.8799343"},{"HospitalName":"VENKATRAMA HOSPITALS","Address":"JAVVARPET","City":"MACHILIPATNAM","State":"ANDHRA PRADESH","ContactNo":"/08672-222518","Latitude":"16.1905457","Longitude":"81.1361543"}],[{"HospitalName":"ANDHRA HOSPITALS-MACHILIPATNAM","Address":"D.NO: 4/124,125, RAJUPET, KRISHNA DIST","City":"MACHILIPATNAM","State":"ANDHRA PRADESH","ContactNo":"/08672-221199/08466996284","Latitude":"16.17622","Longitude":"81.12303"},{"HospitalName":"BRUNDHAVAN NURSING HOME","Address":"DR.B.KESAVA KRISHNA, BRUNDAVAN NURSING HOME, RAJAVARI CENTRE, MACHILIPATNAM","City":"MACHILIPATNAM","State":"ANDHRA PRADESH","ContactNo":"/08672-222295/09849360560","Latitude":"16.5061743","Longitude":"80.6480153"},{"HospitalName":"DEVI HOSPITAL","Address":"D.NO:26/376-1,OPP LADY AMPTHILL COLLEGE,BUTTAIPET,MACHILIPATNAM","City":"MACHILIPATNAM","State":"ANDHRA PRADESH","ContactNo":"/7088002619","Latitude":"16.1793604","Longitude":"81.1350628"},{"HospitalName":"JAGANNADHA HOSPITAL","Address":"D.NO.1/26-1-11, BESIDE BUS STAND, OPP. VEGETABLE MARKET, MAIN ROAD, PEDANA","City":"MACHILIPATNAM","State":"ANDHRA PRADESH","ContactNo":"/08672-248119/08672-295571","Latitude":"16.2147166","Longitude":"81.1015348"},{"HospitalName":"LAKSHMI WOMENS HOSPITAL","Address":"D.NO:23/399, RAMANAIDUPET","City":"MACHILIPATNAM","State":"ANDHRA PRADESH","ContactNo":"/08672-220004","Latitude":"16.3446391","Longitude":"80.7525863"},{"HospitalName":"SRI KALI NURSING HOME","Address":"PEDANA","City":"MACHILIPATNAM","State":"ANDHRA PRADESH","ContactNo":"/08672-248313","Latitude":"16.2903439","Longitude":"81.1526976"},{"HospitalName":"SRINIVASA NURSING HOME","Address":"GODUGUPETA, MACHILIPATNAM","City":"MACHILIPATNAM","State":"ANDHRA PRADESH","ContactNo":"/08672-223450","Latitude":"18.5806842","Longitude":"77.8799343"},{"HospitalName":"VENKATRAMA HOSPITALS","Address":"JAVVARPET","City":"MACHILIPATNAM","State":"ANDHRA PRADESH","ContactNo":"/08672-222518","Latitude":"16.1905457","Longitude":"81.1361543"}],[{"HospitalName":"SAI SINDHURA INSTITUTE OF MEDICAL SCIENCES","Address":"D NO 1-192, TARLPADU ROAD, BESIDE SBI","City":"MARKAPUR","State":"ANDHRA PRADESH","ContactNo":"/09666504247","Latitude":"15.732437","Longitude":"79.2650894"},{"HospitalName":"SRI KANDULA OBULA REDDY HOSPITAL","Address":"SCVK NILAYAM, READING ROOM,4-225, BLOCK NO-7, TOWER CLOCK, OLD BUS STAND","City":"MARKAPUR","State":"ANDHRA PRADESH","ContactNo":"/08596-223787","Latitude":"15.7221772","Longitude":"79.273304"}],[{"HospitalName":"PVS HOSPITAL","Address":"D.NO 4-1-180, OPP. AMBEDKAR BHAVAN, NEAR RTC BUSSTAND, SRIRAM NAGAR, BESIDE AMARAVATHI HOTEL","City":"NAIDUPETA","State":"ANDHRA PRADESH","ContactNo":"/08623-277007","Latitude":"13.9049924","Longitude":"79.8997289"}],[{"HospitalName":"GSR HOSPITAL","Address":"25-684-3-7, NEAR SRINIVASA JUNIOR COLLEGE, PADMAVATHI NAGAR MAIN ROAD","City":"NANDYAL","State":"ANDHRA PRADESH","ContactNo":"/08514-242444","Latitude":"17.3158916","Longitude":"73.4175583"},{"HospitalName":"INDUS HEART INSTITUTE","Address":"D.NO: 2/402-A2, SRINIVASA CENTRE, BESIDE SBI MAIN BRANCH","City":"NANDYAL","State":"ANDHRA PRADESH","ContactNo":"/09701589942","Latitude":"15.4849764","Longitude":"78.4861769"},{"HospitalName":"NANDYAL CRITICAL CARE CENTER","Address":"DOOR NO: 25-684-14-A, NEAR RYTHUBAZAR, TTD ROAD","City":"NANDYAL","State":"ANDHRA PRADESH","ContactNo":"/08514-222233","Latitude":"15.4798639","Longitude":"78.4744214"},{"HospitalName":"NAYANA EYE CARE AND DENTAL RESEARCH CENTRE","Address":"25/684-391-1A, PADMAVATHI NAGAR, NANDYAL","City":"NANDYAL","State":"ANDHRA PRADESH","ContactNo":"/08514-225149","Latitude":"15.485344","Longitude":"78.4808775"},{"HospitalName":"SEVENHILLS MULTISPECIALITY HOSPITAL","Address":"BALAJI COMPLEX, OPP. PRATAP THEATRE, SRINIVASA CENTRE","City":"NANDYAL","State":"ANDHRA PRADESH","ContactNo":"/09442520067","Latitude":"15.4842046","Longitude":"78.4834479"},{"HospitalName":"UDAYANANDA HOSPITALS","Address":"OPP. RAILWAY STATION SOUTH GATE, NUNEPALLY","City":"NANDYAL","State":"ANDHRA PRADESH","ContactNo":"/08514-222999","Latitude":"15.4670607","Longitude":"78.469117"}],[{"HospitalName":"DR. ANJI REDDY MULTI SPECALITY HOSPITAL PVT LTD","Address":"SATTENAPALI ROAD, 02-15-82, ENUGULA BAZAR, NARASARAOPET","City":"NARASARAOPET","State":"ANDHRA PRADESH","ContactNo":"/08688811193","Latitude":"16.19333","Longitude":"80.01996"},{"HospitalName":"DR. MV REDDY EYE HOSPITAL","Address":"D.NO : 2-15-56/1, RAJAGARI KOTA, PRAKASHNAGAR","City":"NARASARAOPET","State":"ANDHRA PRADESH","ContactNo":"/09052992024","Latitude":"16.2384238","Longitude":"80.0204963"},{"HospitalName":"DR. RAMALINGA REDDY MAXIVISION EYE HOSPITALS PRIVATE LIMITED","Address":"FUNTUR ROAD, NARASARAO PET","City":"NARASARAOPET","State":"ANDHRA PRADESH","ContactNo":"/08647-222761","Latitude":"16.19333","Longitude":"80.01996"},{"HospitalName":"JHANSI LAKSHMI NURSING HOME","Address":"5-4-4, PALANADU ROAD","City":"NARASARAOPET","State":"ANDHRA PRADESH","ContactNo":"/08647-223678","Latitude":"16.9123534","Longitude":"71.94635"},{"HospitalName":"KONDAVEEDU ENT HOSPITALS","Address":"GUNTUR ROAD, NARASARAOPET","City":"NARASARAOPET","State":"ANDHRA PRADESH","ContactNo":"/08647-227356/09440758731","Latitude":"16.2353506","Longitude":"80.0479039"},{"HospitalName":"LIKHITHA SUPER SPECIALITY HOSPITAL","Address":"2-15-57/A, KOTA CENTRE","City":"NARASARAOPET","State":"ANDHRA PRADESH","ContactNo":"/0864-7229900","Latitude":"16.4937809","Longitude":"71.9993253"},{"HospitalName":"MAHATHMA GANDHI SUPER SPECILAITY HOSPITALS","Address":"DOOR NO: 12-08-12, PANASATHOTA, GUNTUR DT","City":"NARASARAOPET","State":"ANDHRA PRADESH","ContactNo":"/08647-230007/08647-230008","Latitude":"16.2280156","Longitude":"80.0465067"},{"HospitalName":"MOTHER THERESA MULTI SPECIALITY HOSPITAL","Address":"DOOR NO: 05-1-16&17, PALANADU ROAD","City":"NARASARAOPET","State":"ANDHRA PRADESH","ContactNo":"/08647-227070/08647-227679","Latitude":"16.23706","Longitude":"80.04525"},{"HospitalName":"NELLURI SUPER SPECIALTY HOSPTIAL","Address":"D.NO:2-15-82/A, SATTENAPALLI ROAD","City":"NARASARAOPET","State":"ANDHRA PRADESH","ContactNo":"/0651- 3550755","Latitude":"16.2401903","Longitude":"80.0523326"},{"HospitalName":"PUVVADA HOSPITALS","Address":"DOOR NO: 5-1-1,PALANADU ROAD, NARASARAOPET","City":"NARASARAOPET","State":"ANDHRA PRADESH","ContactNo":"/08647-225464","Latitude":"16.2353506","Longitude":"80.0479039"},{"HospitalName":"SAI NETRALAYAM LASER CENTRE","Address":"DOOR NO: 10-9-14, PALNADU ROAD","City":"NARASARAOPET","State":"ANDHRA PRADESH","ContactNo":"/06301806586","Latitude":"17.4564538","Longitude":"72.2366827"},{"HospitalName":"SAI TIRUMALA SUPER SPECIALITY HOSPITAL","Address":"DNO. 9-1-9, NEAR MORE CENTER, ARUNDALPET","City":"NARASARAOPET","State":"ANDHRA PRADESH","ContactNo":"/08978858987","Latitude":"16.2353506","Longitude":"80.0479039"},{"HospitalName":"SRI DATTA SUPER SPECIALITY HOSPITAL","Address":"BESIDE TOWN HALL, PRAKASH NAGAR, NARASARAOPET","City":"NARASARAOPET","State":"ANDHRA PRADESH","ContactNo":"/08641231309","Latitude":"16.2280156","Longitude":"80.0465067"},{"HospitalName":"SRI HANVITHA HOSPITAL","Address":"BESIDE NAGASARAPU RAMARAO COMPLEX, OLD PALNADU STOP","City":"NARASARAOPET","State":"ANDHRA PRADESH","ContactNo":"/08647-221166/09494010808/08686477447","Latitude":"16.2361914","Longitude":"80.0440341"},{"HospitalName":"SRI SRINIVASA MULTI SPECIALITY HOSPITAL","Address":"D.NO: 5-5-78/38, BESIDE LIBRARY, PALNADU ROAD, NARSARAOPET","City":"NARASARAOPET","State":"ANDHRA PRADESH","ContactNo":"/08647-226669","Latitude":"16.2353506","Longitude":"80.0479039"},{"HospitalName":"VEERAIAH CHOWDARY ORTHO TRAUMA & MULTISPECIALITY HOSPITAL","Address":"OVER BRIDGE ENTRANCE,VINUKONDA ROAD, GUNTUR(DIST)","City":"NARASARAOPET","State":"ANDHRA PRADESH","ContactNo":"/08647-231333","Latitude":"16.2296948","Longitude":"80.0399427"},{"HospitalName":"VENKATESWARA NURSING HOME","Address":"12-01-4/1, PRAKASH NAGAR","City":"NARASARAOPET","State":"ANDHRA PRADESH","ContactNo":"08647-230543","Latitude":"16.2353506","Longitude":"80.0479039"},{"HospitalName":"VIVEKANANDA SUPER SPECIALITY HOSPITAL","Address":"13-4-45, BEHIND SRI KRISHNA CHITRALAYA HALL, NARASARAOPET","City":"NARASARAOPET","State":"ANDHRA PRADESH","ContactNo":"/09908022359","Latitude":"16.2319742","Longitude":"80.0519633"},{"HospitalName":"APOLLO HOSPITALS ENTERPRISE LIMITED","Address":"APOLLO HOSPITALS, PLOT NO. 1, SURVEY NO. 68P & 76, CHINNAGADILI, HEALTH CITY, ARILOVA","City":"NARASARAOPET","State":"ANDHRA PRADESH","ContactNo":"/0891-2867777/0891-2727272","Latitude":"17.7613647","Longitude":"83.2880591"}],[{"HospitalName":"JANAKI HOSPITAL","Address":"STEAMER ROAD, NARSAPUR","City":"NARSAPUR","State":"ANDHRA PRADESH","ContactNo":"/08814-274948","Latitude":"16.439381","Longitude":"81.7011883"}],[{"HospitalName":"ABHIRAM INSTITUTE OF MEDICAL SCIENCES","Address":"OPPOSITE RTC COMPLEX, ATMAKUR","City":"NELLORE","State":"ANDHRA PRADESH","ContactNo":"/08627-223399","Latitude":"14.4387987","Longitude":"79.9721893"},{"HospitalName":"AHALYA DEVI NURSING HOME","Address":"16-1-712, NEAR NEHRU STATUE, OPP TO RAVULA SHOPPING ARCHEDE","City":"NELLORE","State":"ANDHRA PRADESH","ContactNo":"/0861-2344545/09493124729","Latitude":"14.442599","Longitude":"79.986456"},{"HospitalName":"AMRUTHA CHEST CENTRE","Address":"165/10/235, BANK COLONY, SRI HARI NAGAR, MINI BYPASS ROAD","City":"NELLORE","State":"ANDHRA PRADESH","ContactNo":"/0861-2330078/09493621808","Latitude":"14.4406207","Longitude":"79.9793486"},{"HospitalName":"ANASUYA INSTITUTE OF MEDICAL SCIENCES","Address":"BESDE VENKATA RAMANA HOTEL LANE, POGATHOTA","City":"NELLORE","State":"ANDHRA PRADESH","ContactNo":"/0861-2326233/09246423314","Latitude":"14.449151","Longitude":"79.9848559"},{"HospitalName":"APOLLO SPECIALITY HOSPITALS","Address":"D. NO. 16/111/133, MUTHUKAR ROAD, PINAKINI NAGAR","City":"NELLORE","State":"ANDHRA PRADESH","ContactNo":"/0861-3338103","Latitude":"14.393973","Longitude":"79.9388571"},{"HospitalName":"AR KIDNEY HOSPITALS","Address":"# 15/434, AR KIDNEY HOSPITAL CENTER, NEAR PHULE STATUE ,SBI BANK ROAD, VENKATARAMAPURAM","City":"NELLORE","State":"ANDHRA PRADESH","ContactNo":"/0861-2312369/08309827272/09989926369","Latitude":"15.4811737","Longitude":"79.0059223"},{"HospitalName":"ARAVIND KIDNEY CENTRE","Address":"D.NO 15/402, BRINDAVANAM","City":"NELLORE","State":"ANDHRA PRADESH","ContactNo":"/0861-23366333/09849048083","Latitude":"14.4555555","Longitude":"79.9855165"},{"HospitalName":"BALAJI MULTI SPECIALITY HOSPITAL","Address":"NO.13/261-7, HOSPITAL ROAD, OPP.GOVT HOSPITAL, GUDUR","City":"NELLORE","State":"ANDHRA PRADESH","ContactNo":"/08264-251268/,295654","Latitude":"14.1473061","Longitude":"79.8475332"},{"HospitalName":"DEEPTHI NURSING HOME","Address":"OPPOSITE MADHURA SWEETS LANE, BRUNDAVANAM","City":"NELLORE","State":"ANDHRA PRADESH","ContactNo":"/0861-2320802","Latitude":"14.4543047","Longitude":"79.9836889"},{"HospitalName":"DR. AGARWALS EYE HOSPITAL LTD","Address":"DOOR NO 74, MUNICIPAL WARD NO 24-2, NVR CENTRAL, RAJAGOPALAPURAM, GT ROAD, NELLORE, ANDHRA PRADESH","City":"NELLORE","State":"ANDHRA PRADESH","ContactNo":"/0861-2337555","Latitude":"14.4337914","Longitude":"79.9664079"},{"HospitalName":"DR. RAJA SEKHAR EYE HOSPITAL","Address":"16-07-201/1, NEAR SATHYASAI BHAJAN MANDIR, 3RD MAIN ROAD, MINI BYPASS, RAMAMURTHY NAGAR","City":"NELLORE","State":"ANDHRA PRADESH","ContactNo":"/0861-231999/09297529752/09297539752","Latitude":"14.4471","Longitude":"79.9832026"},{"HospitalName":"DR.ANDALS LAKSHMI FERTILITY RESEARCH AND LAPAROSCOPIC SURGICAL CENTRE","Address":"16-2-94, POGATHOTA","City":"NELLORE","State":"ANDHRA PRADESH","ContactNo":"/0861- 2328914/09000808592","Latitude":"14.448394","Longitude":"79.98431"},{"HospitalName":"ENEL HOSPITALS","Address":"24/7/231, OPP WATER TANK,NEAR ANNAMAYA CIRCLE","City":"NELLORE","State":"ANDHRA PRADESH","ContactNo":"/0861-2328899/0861-2328888/09966801108","Latitude":"14.4271133","Longitude":"79.9708443"},{"HospitalName":"HYMAVATHI MULTI SPECIALIY HOSPITAL","Address":"RAMAMURTHY NAGAR, 1ST LINE MINI BY PASS","City":"NELLORE","State":"ANDHRA PRADESH","ContactNo":"/09866701848","Latitude":"16.7921104","Longitude":"71.9558001"},{"HospitalName":"K. M. HOSPITALS","Address":"GLOBAL NAGAR, BUCHIREDDY PALEM","City":"NELLORE","State":"ANDHRA PRADESH","ContactNo":"/08622-272799/09246999429","Latitude":"14.5312873","Longitude":"79.8827655"},{"HospitalName":"KIDZ RAINBOW CHILDREN & BABY HOSPITAL","Address":"RAMESY REDDY NAGAR, OPP KANDHUKURU SHOPPING MALL, NEAR RTC BUS STAND","City":"NELLORE","State":"ANDHRA PRADESH","ContactNo":"/0861-2335888","Latitude":"14.443877","Longitude":"79.9750855"},{"HospitalName":"KRISHNA INSTITUTE OF MEDICAL SCIENCES LTD","Address":"DARAGAMITTA","City":"NELLORE","State":"ANDHRA PRADESH","ContactNo":"/0861-2312777/09440934255","Latitude":"14.4346637","Longitude":"79.9679671"},{"HospitalName":"LAKSHMIRAM HOSPITALS","Address":"4-2-158, KALAHASTHI BYPASS, NEAR CO-OPERATION BANK","City":"NELLORE","State":"ANDHRA PRADESH","ContactNo":"/09966887603","Latitude":"13.9138226","Longitude":"79.8743382"},{"HospitalName":"LOTUS HOSPITAL","Address":"16/2/51, BESIDE S2 CINEMA HALL, POGATHOTA","City":"NELLORE","State":"ANDHRA PRADESH","ContactNo":"/0861-2304289","Latitude":"14.4483939","Longitude":"79.9843099"},{"HospitalName":"MEDICOVER HOSPITALS NELLORE","Address":"NH - 5, CHINTA REDDY PALEM CROSS ROAD","City":"NELLORE","State":"ANDHRA PRADESH","ContactNo":"/0861-6680100/08008104197","Latitude":"14.4365036","Longitude":"79.999432"},{"HospitalName":"MODERN EYE HOSPITAL & RESEARCH CENTRE","Address":"16-11-101, POGATHOTA","City":"NELLORE","State":"ANDHRA PRADESH","ContactNo":"/0861-2324868/09440617164","Latitude":"14.4425987","Longitude":"79.986456"},{"HospitalName":"MYTHILI HOSPITAL MATERNITY & FERTILITY CENTRE","Address":"I.C.S ROAD, SPSR, GUDUR","City":"NELLORE","State":"ANDHRA PRADESH","ContactNo":"/08624253896","Latitude":"14.146319","Longitude":"79.850389"},{"HospitalName":"NARAYANA GENERAL HOSPITAL & NARAYANA SUPERSRECIALITY","Address":"CHINTAREDDYPALEM","City":"NELLORE","State":"ANDHRA PRADESH","ContactNo":"/0861-2317963/0861-2304922/09160083777/09490166200","Latitude":"14.4425987","Longitude":"79.986456"},{"HospitalName":"PADMAVATHI HOSPITAL","Address":"D.NO 285, WARD NO 15, BRINDAVANAM","City":"NELLORE","State":"ANDHRA PRADESH","ContactNo":"/09502718995","Latitude":"13.9047772","Longitude":"79.8945587"},{"HospitalName":"RAINBOW SUPER SPECIALITY HOSPITAL","Address":"NEAR SAIBABA TEMPLE (SUNDAY MARKET), GANDHIBOMMA, SANKARA AGRAHARAM, POGATHOTA","City":"NELLORE","State":"ANDHRA PRADESH","ContactNo":"/0861-2351351,2351111","Latitude":"14.4520548","Longitude":"79.9833145"},{"HospitalName":"RESHMA MULTI SPECIALITY HOSPITAL","Address":"16-2-243,OPP SUNDAY MARKET\n\nPOGATHOTA,NELLORE","City":"NELLORE","State":"ANDHRA PRADESH","ContactNo":"/0861-2339077","Latitude":"14.4308462","Longitude":"79.9555154"},{"HospitalName":"RICH HOSPITALS","Address":"D.NO. 16-11/131, KASTHURIDEVI NAGAR, POGATHOTA","City":"NELLORE","State":"ANDHRA PRADESH","ContactNo":"/0861-2328562/09394313233/09494292982","Latitude":"14.4425987","Longitude":"79.986456"},{"HospitalName":"SAI KIRAN MATERNITY FERTILITY HOSPITAL & IVF ART CENTER","Address":"16-2-240, POGHATHOTA","City":"NELLORE","State":"ANDHRA PRADESH","ContactNo":"/08688006666","Latitude":"14.4533977","Longitude":"79.9836108"},{"HospitalName":"SHINE SPECIALITY HOSPITAL","Address":"D.NO.16-10-41/2, MINI BYPASS ROAD","City":"NELLORE","State":"ANDHRA PRADESH","ContactNo":"/08121212010/07799390855","Latitude":"14.4387754","Longitude":"79.9806662"},{"HospitalName":"SRI RAMACHANDRA NURSING HOME","Address":"W-16-1163, GANDHI NAGAR, POGATHOTA, NEAR ACN BUILDING","City":"NELLORE","State":"ANDHRA PRADESH","ContactNo":"/09399959978","Latitude":"14.4483939","Longitude":"79.9843099"},{"HospitalName":"SRI VAISHNAVI NURSING HOME","Address":"17/687, ACHARI STREET, NEAR COLLERATE STREET, BARRACKS STREET","City":"NELLORE","State":"ANDHRA PRADESH","ContactNo":"/0861-2303181","Latitude":"14.452148","Longitude":"79.975396"},{"HospitalName":"THUMBAY HOSPITAL INDIA PRIVATE LIMITED","Address":"15/266, BRINDAVANAM","City":"NELLORE","State":"ANDHRA PRADESH","ContactNo":"/0861-2332970/09440277202","Latitude":"14.4425987","Longitude":"79.986456"},{"HospitalName":"VASAN EYE CARE HOSPITAL","Address":"15-365, BRINDAVANAM","City":"NELLORE","State":"ANDHRA PRADESH","ContactNo":"/0861-2347456/09642444095","Latitude":"14.4425987","Longitude":"79.986456"},{"HospitalName":"VIJAYA HOSPITAL","Address":"RAGAVA CLINE COMPLEX ROAD, POGATHOTA","City":"NELLORE","State":"ANDHRA PRADESH","ContactNo":"/0861-2321528/0861-2321828","Latitude":"14.4501074","Longitude":"79.9859957"},{"HospitalName":"VIJETHA EYE HOSPITAL","Address":"15/274,275, BESIDE SYNDICATE BANK, BRUNDAVANAM","City":"NELLORE","State":"ANDHRA PRADESH","ContactNo":"/0861-2303355","Latitude":"14.4540722","Longitude":"79.9849919"}],[{"HospitalName":"ADARSHA ADVANCED ORTHO & TRAUMA CENTRE","Address":"SUNDARAIAH BAVAN, CROSS ROADS, KURNOOL RAOD","City":"ONGOLE","State":"ANDHRA PRADESH","ContactNo":"/08592-233652","Latitude":"15.5101679","Longitude":"80.0369215"},{"HospitalName":"ALURI MULTI SPECIALITY HOSPITAL","Address":"NEAR RTC BUS DEPOT, KURNOOL ROAD, OPPOSITE MOURYA HOTEL","City":"ONGOLE","State":"ANDHRA PRADESH","ContactNo":"/08592-233767","Latitude":"15.512468","Longitude":"80.0415362"},{"HospitalName":"CHAITANYA HOSPITAL","Address":"ANJAIAH ROAD","City":"ONGOLE","State":"ANDHRA PRADESH","ContactNo":"/09581746737","Latitude":"15.5129969","Longitude":"80.0404447"},{"HospitalName":"JANATHA INSTITUTE OF MEDICAL SCIENCES","Address":"5-1/1-1 (A), BESIDE JAYARAM THEATRE, COURT CENTRE","City":"ONGOLE","State":"ANDHRA PRADESH","ContactNo":"/08340831122","Latitude":"15.503379","Longitude":"80.0403088"},{"HospitalName":"KAMALA NURSING HOME","Address":"BESIDE NAVABHARA THEATRE, GUNTUR ROAD","City":"ONGOLE","State":"ANDHRA PRADESH","ContactNo":"/08592-232425","Latitude":"15.5124049","Longitude":"80.0440665"},{"HospitalName":"KRISHNA INSTITUTE OF MEDICAL SCIENCES LTD","Address":"4-120/A, NORTH BYPASS ROAD, MUKTHINUTHALAPADU, BACK SIDE AGRICULTURE MARKET YARD","City":"ONGOLE","State":"ANDHRA PRADESH","ContactNo":"/0859-2667788","Latitude":"15.4862772","Longitude":"80.0460717"},{"HospitalName":"KV NURSING HOME","Address":"KAMASASTRY STREET, SANTHAPET","City":"ONGOLE","State":"ANDHRA PRADESH","ContactNo":"/08592-232033","Latitude":"15.4946454","Longitude":"80.0475562"},{"HospitalName":"MANASA MOTHER & CHILD HOSPITAL","Address":"LAMBADI DONKA, NEAR ADITYA SCHOOL","City":"ONGOLE","State":"ANDHRA PRADESH","ContactNo":"/08592-239578","Latitude":"15.502005","Longitude":"80.0031833"},{"HospitalName":"MODERN EYE HOSPITAL & RESEARCH CENTRE","Address":"D.NO.7/13/1, LAWYERPET EXTENSION, 5TH LANE, OPP. DR. BETHUNE NURSING HOME, BESIDE SAIBABA TEMPLE LANE","City":"ONGOLE","State":"ANDHRA PRADESH","ContactNo":"/08592-220522/08592-220622/09494292931","Latitude":"15.4937112","Longitude":"80.0462609"},{"HospitalName":"NALLURI NURSING HOME","Address":"KP ROAD, ONGOLE","City":"ONGOLE","State":"ANDHRA PRADESH","ContactNo":"/08592-233006/09160355113","Latitude":"15.504789","Longitude":"80.051374"},{"HospitalName":"PRAKASAM SUPER SPECIALITY HOSPITAL","Address":"BESIDE RTC BUS STAND, ONGOLE","City":"ONGOLE","State":"ANDHRA PRADESH","ContactNo":"/07799866666/08886688713","Latitude":"15.479061","Longitude":"80.048297"},{"HospitalName":"PRASAD MULTISPECIALITY HOSPITAL","Address":"TRUNK ROAD, NEAR NELLORE BUS STAND","City":"ONGOLE","State":"ANDHRA PRADESH","ContactNo":"/08592-232002","Latitude":"15.4972097","Longitude":"80.0459897"},{"HospitalName":"RAVI MOTHER AND CHILDREN HOSPITAL","Address":"20-6-13, ANJAIAH ROAD, NEAR RTC BUSSTATION","City":"ONGOLE","State":"ANDHRA PRADESH","ContactNo":"/08592-230900","Latitude":"15.4813673","Longitude":"80.0590804"},{"HospitalName":"ROYAL MULTI SPECIALITY HOSPITAL","Address":"37-1-169/40/1, SUNDARAIAH BHAVAN ROAD","City":"ONGOLE","State":"ANDHRA PRADESH","ContactNo":"/08592-283338","Latitude":"15.511246","Longitude":"80.0374886"},{"HospitalName":"SAI SHASHINI MULTI SPECIALITY HOSPITAL","Address":"D.NO:37-1-169/39, SUNDARAIAH BHAVAN ROAD","City":"ONGOLE","State":"ANDHRA PRADESH","ContactNo":"/08861680788","Latitude":"15.5129917","Longitude":"80.0376079"},{"HospitalName":"SANGHAMITRA HOSPITALS PRIVATE LIMITED","Address":"SOUTH BYPASS JUNCTION","City":"ONGOLE","State":"ANDHRA PRADESH","ContactNo":"/07799885588","Latitude":"15.5057232","Longitude":"80.049922"},{"HospitalName":"SUNDARA RAJA NURSING HOME","Address":"RAJAPANAGAL ROAD, ONGOLE","City":"ONGOLE","State":"ANDHRA PRADESH","ContactNo":"/08592-232665/09985016027","Latitude":"15.5036755","Longitude":"80.0416614"},{"HospitalName":"SURAKSHA HOSPITAL","Address":"37-1-169/161, 162, BESIDE JAYALLUKKAS, KURNOOL ROAD","City":"ONGOLE","State":"ANDHRA PRADESH","ContactNo":"/08592-230655","Latitude":"15.5129602","Longitude":"80.0380044"},{"HospitalName":"UPAS SUPER SPECILAITY HOSPITAL","Address":"D.NO: 58-6-30, NEAR BACHALA BALLAYA KALYANA MANDAPAM, SANTHAPETA, RAILWAY STATION ROAD","City":"ONGOLE","State":"ANDHRA PRADESH","ContactNo":"/08592-232222/09849888871","Latitude":"16.3748466","Longitude":"78.9784709"},{"HospitalName":"VAATSALYA HOSPITAL","Address":"37-1-413, SRI SAI HEALTH CARE COMPLEX, PRAGATHI BHAVAN, SOUTHBY PASS","City":"ONGOLE","State":"ANDHRA PRADESH","ContactNo":"/08592-280417","Latitude":"15.4813673","Longitude":"80.0590804"},{"HospitalName":"VASUDHAKALYAN MULTI SPECIALITY HOSPITAL","Address":"20-7-55/1, OPP. SIVANI PUBLIC SCHOOL, SUNDARAIAH BHAVAN ROAD","City":"ONGOLE","State":"ANDHRA PRADESH","ContactNo":"/08592-226123","Latitude":"15.5117378","Longitude":"80.0372089"},{"HospitalName":"VENKATA RAMANA NURSING HOME PVT .LTD","Address":"4-370, OPP. APSRTC BUS DEPO, KURNOOL ROAD","City":"ONGOLE","State":"ANDHRA PRADESH","ContactNo":"/08592-282623","Latitude":"15.502005","Longitude":"80.0031833"},{"HospitalName":"VIJAYA HOSPITAL","Address":"60FT ROAD, SATYANARAYANAPURAM, OPP RTC BUS COMPLEX, ONGOLE","City":"ONGOLE","State":"ANDHRA PRADESH","ContactNo":"/08952-221221/09989005630","Latitude":"15.5131115","Longitude":"80.0431091"}],[{"HospitalName":"SESHADRI HOSPITAL","Address":"H NO 38-2-4, BUDHAVARAPU STREET, NEAR TOWN POLICE STATION","City":"PALAKOL","State":"ANDHRA PRADESH","ContactNo":"/08814-221114/08814-221999","Latitude":"16.5167684","Longitude":"81.7305968"},{"HospitalName":"SRI SURYA NURSING HOME","Address":"12-2-31/2, JETTY TANK ROAD, KODIGATHI","City":"PALAKOL","State":"ANDHRA PRADESH","ContactNo":"/08814-225451/09440749480","Latitude":"16.9174181","Longitude":"81.3399414"}],[{"HospitalName":"DR. ANJI REDDY MULTI SPECALITY HOSPITAL PVT LTD","Address":"16-687, MAIN ROAD","City":"PIDUGURALLA","State":"ANDHRA PRADESH","ContactNo":"/08649-254001","Latitude":"16.5015931","Longitude":"79.8968798"},{"HospitalName":"PALNADU HOSPITALS","Address":"NO. 7-234, MAIN ROAD, PIDUGURALLA","City":"PIDUGURALLA","State":"ANDHRA PRADESH","ContactNo":"/08649-256060/08649-256006","Latitude":"16.4781478","Longitude":"79.876671"},{"HospitalName":"SAI SRINIVASA HOSPITALS","Address":"PILLUTLA ROAD, PIDUGURALLA","City":"PIDUGURALLA","State":"ANDHRA PRADESH","ContactNo":"/09849133260","Latitude":"16.4823156","Longitude":"79.887513"}],[{"HospitalName":"DR. B. JAWAHAR NURSING HOME","Address":"DOOR NO 2-59/A, NAWAB PET, MAIN ROAD, CHIMAKURTHY","City":"PRAKASHAM","State":"ANDHRA PRADESH","ContactNo":"/08592-272528","Latitude":"17.1734193","Longitude":"71.9279307"},{"HospitalName":"HARINI PRAJA VYDYASALA","Address":"D.NO: 22-2-45/2, KOVUR ROAD, KANDUKUR","City":"PRAKASHAM","State":"ANDHRA PRADESH","ContactNo":"/09989604693","Latitude":"15.2186162","Longitude":"79.8957552"},{"HospitalName":"JAMAL HOSPITAL","Address":"DOOR NO:5-969, KURICHEDU ROAD, DARSI","City":"PRAKASHAM","State":"ANDHRA PRADESH","ContactNo":"/08125111666","Latitude":"15.7718955","Longitude":"79.6750937"},{"HospitalName":"JHANSI NURSING HOME","Address":"NEAR SIVASANKAR THEATRE, DARSI, ADDANKI RDS","City":"PRAKASHAM","State":"ANDHRA PRADESH","ContactNo":"/08407-253066/0772953066","Latitude":"15.7724064","Longitude":"79.6824472"}],[{"HospitalName":"ABHAYA EMERGENCY CENTRE SREE HOSPITALS","Address":"79-1-4/1, JN ROAD, PRAKASHNAGAR, RAJAHMUNDRY","City":"RAJAHMUNDRY","State":"ANDHRA PRADESH","ContactNo":"/0883-2461640/09246782812","Latitude":"17.0074543","Longitude":"81.7917533"},{"HospitalName":"AKIRA EYE HOSPITAL","Address":"D. NO:12-20-18, ARYAPURAM, RAJAMAHENDRAVARAM","City":"RAJAHMUNDRY","State":"ANDHRA PRADESH","ContactNo":"/0883-2471147/0883-2477701","Latitude":"17.0151123","Longitude":"81.7725499"},{"HospitalName":"ANNAPURNA HOSPITALS & EMERGENCY CARE CENTRE","Address":"17-9-14, A.P.P MILLS ROAD, SEETHAMPETA","City":"RAJAHMUNDRY","State":"ANDHRA PRADESH","ContactNo":"/0883-2442942","Latitude":"17.0103021","Longitude":"81.7727812"},{"HospitalName":"DELTA HOSPITALS","Address":"NH-16, OPOSITE ONGC BASE COMPLEX, VENKATESHWARA NAGAR,","City":"RAJAHMUNDRY","State":"ANDHRA PRADESH","ContactNo":"/08374771273","Latitude":"17.0113685","Longitude":"81.8065367"},{"HospitalName":"DR. AGARWALS EYE HOSPITAL LTD","Address":"NO: 54-9-8, ADDEPALLI COLONY, A.V APPA RAO ROAD","City":"RAJAHMUNDRY","State":"ANDHRA PRADESH","ContactNo":"/0883-2555389","Latitude":"17.007518","Longitude":"81.780631"},{"HospitalName":"HELIOS HOSPITAL","Address":"46-19-17, OPP. OLD POS OFFFICE, DANVAIPETA","City":"RAJAHMUNDRY","State":"ANDHRA PRADESH","ContactNo":"/09866466435/0883-3560040","Latitude":"17.0074438","Longitude":"81.7823226"},{"HospitalName":"KAMALKAR HOSPITAL","Address":"GANDHIPURAM, NEAR PRAKASH NAGAR, ROUND PARK","City":"RAJAHMUNDRY","State":"ANDHRA PRADESH","ContactNo":"/0883-2472999/0883-7960212/09441819834","Latitude":"17.0068375","Longitude":"81.7875023"},{"HospitalName":"NAVEEN MULTI SPECIALITY HOSPITAL","Address":"D NO. 75-8-12, A. V. A ROAD, GANDHIPURAM","City":"RAJAHMUNDRY","State":"ANDHRA PRADESH","ContactNo":"/0883-2443144/2431562","Latitude":"17.0061768","Longitude":"81.7866619"},{"HospitalName":"NEST HOSPITAL","Address":"DANAVAIPETA","City":"RAJAHMUNDRY","State":"ANDHRA PRADESH","ContactNo":"/0883-2433833/0883-2433834","Latitude":"17.0068895","Longitude":"81.7829842"},{"HospitalName":"R.S NEURO & MULTISPECIALTY HOSPITAL","Address":"46-21-10, DANAVAIPETA, BESIDE NARAYANA JR. COLLEGE","City":"RAJAHMUNDRY","State":"ANDHRA PRADESH","ContactNo":"/0883-2474744","Latitude":"17.008193","Longitude":"81.7833113"},{"HospitalName":"RAJU NEURO & MULTISPECIALITY HOSPITALS PVT. LTD.","Address":"GANDHIPURAM, RAJAHMUNDRY","City":"RAJAHMUNDRY","State":"ANDHRA PRADESH","ContactNo":"/0883-2445199/09885810399","Latitude":"11.021315","Longitude":"76.970487"},{"HospitalName":"REVATHI HOSPITAL","Address":"DO/NO:87-1-17, AYYAPPA NAGAR, OPP. SHELTON HOTEL","City":"RAJAHMUNDRY","State":"ANDHRA PRADESH","ContactNo":"/0883-2491849","Latitude":"16.999786","Longitude":"81.7903466"},{"HospitalName":"SATYA KIDNEY AND MULTISPECIALITY","Address":"86-10-11/1, TIALK ROAD","City":"RAJAHMUNDRY","State":"ANDHRA PRADESH","ContactNo":"/07688882222/08832441666","Latitude":"17.003591","Longitude":"81.7935925"},{"HospitalName":"SIDDARTHA NURSING HOME & POLY CLINIC","Address":"29-14-96, DEVI CHOUK, RAJAHMUNDRY","City":"RAJAHMUNDRY","State":"ANDHRA PRADESH","ContactNo":"/0883-2473603/09866509116","Latitude":"17.000658","Longitude":"81.8041153"},{"HospitalName":"SIDDHARTHA CHILDREN’S & MULTI SPECIALITY HOSPITAL","Address":"VL PURAM, VINAYAKA TEMPLE TO MODEL COLONY ROAD, RAJAMAHENDRAVARAM","City":"RAJAHMUNDRY","State":"ANDHRA PRADESH","ContactNo":"/09100225574","Latitude":"17.0039722","Longitude":"81.7778825"},{"HospitalName":"SREE LATHA HOSPITALS","Address":"12-24-4, NEAR GOKAVARAM BUSTAND, ARYAPURAM","City":"RAJAHMUNDRY","State":"ANDHRA PRADESH","ContactNo":"/0883-2461950/0883-2461960","Latitude":"17.0111494","Longitude":"81.7694619"},{"HospitalName":"SRI KESHAV EMEREGENCY & MULTI SPECIALTY HOSPITAL","Address":"6-156,4TH BRIDGE ,KONTHAMURU","City":"RAJAHMUNDRY","State":"ANDHRA PRADESH","ContactNo":"/09709749999/09697319999","Latitude":"17.0527996","Longitude":"81.8032103"},{"HospitalName":"SRI RAKSHA MULTI SPECIALITY HOSPITAL","Address":"#76/4/5,MEDURI STREET, BEHIND RAJU NEURO HOSPITAL","City":"RAJAHMUNDRY","State":"ANDHRA PRADESH","ContactNo":"/09966110108","Latitude":"17.0059539","Longitude":"81.782805"},{"HospitalName":"SRI SANTHI ENT HOSPITAL","Address":"75-7-37/1, OPP SBI DANAVAIPET, PRAKASH NAGAR ROUND PARK VINAYAKA TEMPLE OPP STREET, DANAVAIPET","City":"RAJAHMUNDRY","State":"ANDHRA PRADESH","ContactNo":"/0883-2475253","Latitude":"17.0068895","Longitude":"81.7829842"},{"HospitalName":"SUN STAR HOSPITALS","Address":"26-3-22, KAMBALAPETA, TILAK ROAD","City":"RAJAHMUNDRY","State":"ANDHRA PRADESH","ContactNo":"/0883-2020255/0883-2020666","Latitude":"17.0110934","Longitude":"81.7784369"},{"HospitalName":"SWATANTRA HOSPITALS (MS) PVT LTD","Address":"NEAR KAMBALA PARK, RAJAHMUNDRY","City":"RAJAHMUNDRY","State":"ANDHRA PRADESH","ContactNo":"/0883-2400401/0883-2400402/0883-2400403/09866421818/09848111622/09885308181","Latitude":"17.0127714","Longitude":"81.7782905"}],[{"HospitalName":"ABHAYA EMERGENCY CENTRE SREE HOSPITALS","Address":"79-1-4/1, JN ROAD, PRAKASHNAGAR, RAJAHMUNDRY","City":"RAJAHMUNDRY","State":"ANDHRA PRADESH","ContactNo":"/0883-2461640/09246782812","Latitude":"17.0074543","Longitude":"81.7917533"},{"HospitalName":"AKIRA EYE HOSPITAL","Address":"D. NO:12-20-18, ARYAPURAM, RAJAMAHENDRAVARAM","City":"RAJAHMUNDRY","State":"ANDHRA PRADESH","ContactNo":"/0883-2471147/0883-2477701","Latitude":"17.0151123","Longitude":"81.7725499"},{"HospitalName":"ANNAPURNA HOSPITALS & EMERGENCY CARE CENTRE","Address":"17-9-14, A.P.P MILLS ROAD, SEETHAMPETA","City":"RAJAHMUNDRY","State":"ANDHRA PRADESH","ContactNo":"/0883-2442942","Latitude":"17.0103021","Longitude":"81.7727812"},{"HospitalName":"DELTA HOSPITALS","Address":"NH-16, OPOSITE ONGC BASE COMPLEX, VENKATESHWARA NAGAR,","City":"RAJAHMUNDRY","State":"ANDHRA PRADESH","ContactNo":"/08374771273","Latitude":"17.0113685","Longitude":"81.8065367"},{"HospitalName":"DR. AGARWALS EYE HOSPITAL LTD","Address":"NO: 54-9-8, ADDEPALLI COLONY, A.V APPA RAO ROAD","City":"RAJAHMUNDRY","State":"ANDHRA PRADESH","ContactNo":"/0883-2555389","Latitude":"17.007518","Longitude":"81.780631"},{"HospitalName":"HELIOS HOSPITAL","Address":"46-19-17, OPP. OLD POS OFFFICE, DANVAIPETA","City":"RAJAHMUNDRY","State":"ANDHRA PRADESH","ContactNo":"/09866466435/0883-3560040","Latitude":"17.0074438","Longitude":"81.7823226"},{"HospitalName":"KAMALKAR HOSPITAL","Address":"GANDHIPURAM, NEAR PRAKASH NAGAR, ROUND PARK","City":"RAJAHMUNDRY","State":"ANDHRA PRADESH","ContactNo":"/0883-2472999/0883-7960212/09441819834","Latitude":"17.0068375","Longitude":"81.7875023"},{"HospitalName":"NAVEEN MULTI SPECIALITY HOSPITAL","Address":"D NO. 75-8-12, A. V. A ROAD, GANDHIPURAM","City":"RAJAHMUNDRY","State":"ANDHRA PRADESH","ContactNo":"/0883-2443144/2431562","Latitude":"17.0061768","Longitude":"81.7866619"},{"HospitalName":"NEST HOSPITAL","Address":"DANAVAIPETA","City":"RAJAHMUNDRY","State":"ANDHRA PRADESH","ContactNo":"/0883-2433833/0883-2433834","Latitude":"17.0068895","Longitude":"81.7829842"},{"HospitalName":"R.S NEURO & MULTISPECIALTY HOSPITAL","Address":"46-21-10, DANAVAIPETA, BESIDE NARAYANA JR. COLLEGE","City":"RAJAHMUNDRY","State":"ANDHRA PRADESH","ContactNo":"/0883-2474744","Latitude":"17.008193","Longitude":"81.7833113"},{"HospitalName":"RAJU NEURO & MULTISPECIALITY HOSPITALS PVT. LTD.","Address":"GANDHIPURAM, RAJAHMUNDRY","City":"RAJAHMUNDRY","State":"ANDHRA PRADESH","ContactNo":"/0883-2445199/09885810399","Latitude":"11.021315","Longitude":"76.970487"},{"HospitalName":"REVATHI HOSPITAL","Address":"DO/NO:87-1-17, AYYAPPA NAGAR, OPP. SHELTON HOTEL","City":"RAJAHMUNDRY","State":"ANDHRA PRADESH","ContactNo":"/0883-2491849","Latitude":"16.999786","Longitude":"81.7903466"},{"HospitalName":"SATYA KIDNEY AND MULTISPECIALITY","Address":"86-10-11/1, TIALK ROAD","City":"RAJAHMUNDRY","State":"ANDHRA PRADESH","ContactNo":"/07688882222/08832441666","Latitude":"17.003591","Longitude":"81.7935925"},{"HospitalName":"SIDDARTHA NURSING HOME & POLY CLINIC","Address":"29-14-96, DEVI CHOUK, RAJAHMUNDRY","City":"RAJAHMUNDRY","State":"ANDHRA PRADESH","ContactNo":"/0883-2473603/09866509116","Latitude":"17.000658","Longitude":"81.8041153"},{"HospitalName":"SIDDHARTHA CHILDREN’S & MULTI SPECIALITY HOSPITAL","Address":"VL PURAM, VINAYAKA TEMPLE TO MODEL COLONY ROAD, RAJAMAHENDRAVARAM","City":"RAJAHMUNDRY","State":"ANDHRA PRADESH","ContactNo":"/09100225574","Latitude":"17.0039722","Longitude":"81.7778825"},{"HospitalName":"SREE LATHA HOSPITALS","Address":"12-24-4, NEAR GOKAVARAM BUSTAND, ARYAPURAM","City":"RAJAHMUNDRY","State":"ANDHRA PRADESH","ContactNo":"/0883-2461950/0883-2461960","Latitude":"17.0111494","Longitude":"81.7694619"},{"HospitalName":"SRI KESHAV EMEREGENCY & MULTI SPECIALTY HOSPITAL","Address":"6-156,4TH BRIDGE ,KONTHAMURU","City":"RAJAHMUNDRY","State":"ANDHRA PRADESH","ContactNo":"/09709749999/09697319999","Latitude":"17.0527996","Longitude":"81.8032103"},{"HospitalName":"SRI RAKSHA MULTI SPECIALITY HOSPITAL","Address":"#76/4/5,MEDURI STREET, BEHIND RAJU NEURO HOSPITAL","City":"RAJAHMUNDRY","State":"ANDHRA PRADESH","ContactNo":"/09966110108","Latitude":"17.0059539","Longitude":"81.782805"},{"HospitalName":"SRI SANTHI ENT HOSPITAL","Address":"75-7-37/1, OPP SBI DANAVAIPET, PRAKASH NAGAR ROUND PARK VINAYAKA TEMPLE OPP STREET, DANAVAIPET","City":"RAJAHMUNDRY","State":"ANDHRA PRADESH","ContactNo":"/0883-2475253","Latitude":"17.0068895","Longitude":"81.7829842"},{"HospitalName":"SUN STAR HOSPITALS","Address":"26-3-22, KAMBALAPETA, TILAK ROAD","City":"RAJAHMUNDRY","State":"ANDHRA PRADESH","ContactNo":"/0883-2020255/0883-2020666","Latitude":"17.0110934","Longitude":"81.7784369"},{"HospitalName":"SWATANTRA HOSPITALS (MS) PVT LTD","Address":"NEAR KAMBALA PARK, RAJAHMUNDRY","City":"RAJAHMUNDRY","State":"ANDHRA PRADESH","ContactNo":"/0883-2400401/0883-2400402/0883-2400403/09866421818/09848111622/09885308181","Latitude":"17.0127714","Longitude":"81.7782905"}],[{"HospitalName":"BAGGU SAROJINI DEVI HOSPITAL","Address":"2-2-131, ILISIPURAM, OPPOSITE KHADIGRMODYOD","City":"SRIKAKULAM","State":"ANDHRA PRADESH","ContactNo":"/08942-279696/08942-279633/08942-278833/09490904141","Latitude":"18.2890868","Longitude":"83.9055997"},{"HospitalName":"DR. GOLIVI MOHAN","Address":"AP INDUSTRIAL AREA, G-5 BALAGA, OPP BHARATH PETROLBUNK","City":"SRIKAKULAM","State":"ANDHRA PRADESH","ContactNo":"/08942-278883","Latitude":"18.2890868","Longitude":"83.9055997"},{"HospitalName":"GMR VARALAKSHMI CARE HOSPITAL","Address":"GMR NAGAR, RAJAM","City":"SRIKAKULAM","State":"ANDHRA PRADESH","ContactNo":"/08941-253185/07702333698","Latitude":"18.4612718","Longitude":"83.6583536"},{"HospitalName":"MAHALAKSHMI LIFE RAY HOSPITAL","Address":"NEW BRIDGE ROAD, NEAR  SIMHADWARAM","City":"SRIKAKULAM","State":"ANDHRA PRADESH","ContactNo":"/08333981678/08333982678","Latitude":"14.0778475","Longitude":"76.4982027"},{"HospitalName":"MEDICOVER HOSPITAL - SRIKAKULAM","Address":"16-3-166, 167 NEW BRIDGRE ROAD, P N COLONY, BAIRIVANIPETA JN","City":"SRIKAKULAM","State":"ANDHRA PRADESH","ContactNo":"/08639055843","Latitude":"17.784262","Longitude":"73.9111007"},{"HospitalName":"SURAKSHA KIDNEY & MATERNITY CENTRE","Address":"PLOT NO 4,5,6, OPPOSITE BALAGA BHARAT PETROL BUNK,BONDILIPURAM","City":"SRIKAKULAM","State":"ANDHRA PRADESH","ContactNo":"/08942-229933 /08500323436","Latitude":"18.3138967","Longitude":"83.8963287"},{"HospitalName":"VIJAYA HARSHA MOTHER & CHILD HOSPITAL","Address":"ONE WAY TRAFFIC ROAD, NEAR SARASWATHI MAHAL, SRIKAKULAM","City":"SRIKAKULAM","State":"ANDHRA PRADESH","ContactNo":"/08942-220221","Latitude":"18.3003411","Longitude":"83.906215"}],[{"HospitalName":"SRI TIRUMALA HOSPITAL","Address":"8-516-44-9, SIVA SAI STREET, SRI DAKSHINA KAILASHA NAGAR","City":"SRIKALAHASTI","State":"ANDHRA PRADESH","ContactNo":"/08919934264/08008361412","Latitude":"13.041133","Longitude":"77.5164115"}],[{"HospitalName":"DR G. R REDDY EYE CARE CENTER","Address":"WARD NO-30, OPPOSITE BUS DEPOT OUT GATE","City":"TADEPALLIGUDEM","State":"ANDHRA PRADESH","ContactNo":"/08818-221225","Latitude":"16.8138415","Longitude":"81.521241"}],[{"HospitalName":"GEETA HOSPITALS","Address":"22-7-2/1, VINNAKOTAVARI STREET, OPP. STREET TO POLYTECHNIC COLLEGE","City":"TANUKU","State":"ANDHRA PRADESH","ContactNo":"/088-19224246/09704608689","Latitude":"16.7571507","Longitude":"81.6774528"},{"HospitalName":"NISA HOSPITAL","Address":"DNO 21.4-29, OLD POLICE STATION STREET","City":"TANUKU","State":"ANDHRA PRADESH","ContactNo":"/08819-225123","Latitude":"16.7561918","Longitude":"81.6805185"},{"HospitalName":"SAI SWETHA SUPER SPECIALITY  HOSPITAL","Address":"NEAR D2 ELECTRICAL SUB STATION, PETREVALLY JUNCTION","City":"TANUKU","State":"ANDHRA PRADESH","ContactNo":"/08819-229222","Latitude":"16.7521694","Longitude":"81.6844476"},{"HospitalName":"SRI ADITYA HOSPITAL","Address":"33-5-1, SURYALAYAM STREET, NEAR BHAVYA SCANNING CENTRE","City":"TANUKU","State":"ANDHRA PRADESH","ContactNo":"/08819-228696","Latitude":"16.752769","Longitude":"81.674186"}],[{"HospitalName":"AMRUTHA NURSING HOME","Address":"BATTTAVARI ST NEAR RTC BUSSTAND, GUNTUR, TENAIL","City":"TENALI","State":"ANDHRA PRADESH","ContactNo":"/08644-232780","Latitude":"16.2993908","Longitude":"80.4427153"},{"HospitalName":"HEALTH HOSPITALS(LG MEDICAL SPECIALITIES)","Address":"7-5-88/A, PRAKASAM ROAD, GANGANAMMAPET","City":"TENALI","State":"ANDHRA PRADESH","ContactNo":"/08644-222229/08644-226060/07036505555","Latitude":"13.0962388","Longitude":"80.2864448"},{"HospitalName":"MYTHREE MEDICAL SERVICES LLP","Address":"D.NO 6-7-34/1, SOUNT ZONE, NEHRU ROAD, TENALI","City":"TENALI","State":"ANDHRA PRADESH","ContactNo":"/08644-225566","Latitude":"16.2497927","Longitude":"80.6044901"},{"HospitalName":"SURE VISION EYE HOSPITALS","Address":"D.NO. 7-11-42, FIRST FLOOR, GANGANAMMAPET, TENALI","City":"TENALI","State":"ANDHRA PRADESH","ContactNo":"/09700352435","Latitude":"16.2425804","Longitude":"80.6454694"}],[{"HospitalName":"AMRUTHA NURSING HOME","Address":"BATTTAVARI ST NEAR RTC BUSSTAND, GUNTUR, TENAIL","City":"TENALI","State":"ANDHRA PRADESH","ContactNo":"/08644-232780","Latitude":"16.2993908","Longitude":"80.4427153"},{"HospitalName":"HEALTH HOSPITALS(LG MEDICAL SPECIALITIES)","Address":"7-5-88/A, PRAKASAM ROAD, GANGANAMMAPET","City":"TENALI","State":"ANDHRA PRADESH","ContactNo":"/08644-222229/08644-226060/07036505555","Latitude":"13.0962388","Longitude":"80.2864448"},{"HospitalName":"MYTHREE MEDICAL SERVICES LLP","Address":"D.NO 6-7-34/1, SOUNT ZONE, NEHRU ROAD, TENALI","City":"TENALI","State":"ANDHRA PRADESH","ContactNo":"/08644-225566","Latitude":"16.2497927","Longitude":"80.6044901"},{"HospitalName":"SURE VISION EYE HOSPITALS","Address":"D.NO. 7-11-42, FIRST FLOOR, GANGANAMMAPET, TENALI","City":"TENALI","State":"ANDHRA PRADESH","ContactNo":"/09700352435","Latitude":"16.2425804","Longitude":"80.6454694"}],[{"HospitalName":"SRI VAISHNAVI HOSPITAL","Address":"D.NO:6-126, BESIDE CHAITHANYA TECHNO SCHOOL, BOSUBOMMA CENTER","City":"TIRUVRU","State":"ANDHRA PRADESH","ContactNo":"/09885341049","Latitude":"17.1098818","Longitude":"80.6067482"}],[{"HospitalName":"HYMA NETHRALAYAM","Address":"NEAR TDP KARYALAYAM, PAYAKAROPETA","City":"TUNI","State":"ANDHRA PRADESH","ContactNo":"/096402399666","Latitude":"17.362194","Longitude":"82.5519693"},{"HospitalName":"PANDURANGA PRAJA VYDYASALA","Address":"2-17-29, RS PETA, NEAR SRIRAMA THEATRE, EAST GODAVARI","City":"TUNI","State":"ANDHRA PRADESH","ContactNo":"/08854-256094","Latitude":"17.355267","Longitude":"82.5429325"}],[{"HospitalName":"AAYUSH HOSPITALS","Address":"48-13-3 & 3A, SRI RAMA CHANDRA NAGAR, OPP SIDDHARTHA MEDICAL COLLEGE","City":"VIJAYAWADA","State":"ANDHRA PRADESH","ContactNo":"/08466999958","Latitude":"17.0335086","Longitude":"78.4536778"},{"HospitalName":"ABHAYA MULTISPECIALITY HOSPITAL","Address":"D.NO: 33-18-02, SVK STREET, NEAR PUSHPA HOTEL CENTRE","City":"VIJAYAWADA","State":"ANDHRA PRADESH","ContactNo":"/0866-35533561","Latitude":"16.5124957","Longitude":"80.6233211"},{"HospitalName":"AKKINENI WOMENS HOSPITALS PVT. LTD.","Address":"#54-20/10-12, BHARATHI NAGAR SERVICE ROAD, SRINAGAR COLONY","City":"VIJAYAWADA","State":"ANDHRA PRADESH","ContactNo":"/0866-2955589,0866-2956668/07331188415/07331188416","Latitude":"16.5074226","Longitude":"80.6612293"},{"HospitalName":"AMARAVATI EYE HOSPITAL","Address":"D.NO: 29-14-45, SRI GURU RESIDENCY, PRAKASAM ROAD, SURYARAOPET, PUSHPA HOTEL CENTRE","City":"VIJAYAWADA","State":"ANDHRA PRADESH","ContactNo":"/0866-2437111","Latitude":"16.5125184","Longitude":"80.63813945"},{"HospitalName":"AMERICAN ONCOLOGY INSTITUTE","Address":"D.NO.8-102/1, AT NAGARJUNA HOSPITAL CAMPUS, KANURU","City":"VIJAYAWADA","State":"ANDHRA PRADESH","ContactNo":"/08666779999","Latitude":"16.4157894","Longitude":"80.486157"},{"HospitalName":"ANDHRA HOSPITALS (BHAVANI PURAM) PVT.LTD","Address":"OPP.HIGH SCHOOL, GOLLAPUDI","City":"VIJAYAWADA","State":"ANDHRA PRADESH","ContactNo":"/0866-2415757/0866-2414187/0866-2414167","Latitude":"16.5423724","Longitude":"80.5799505"},{"HospitalName":"ANDHRA HOSPITALS (VIJAYAWADA) PRIVATE LIMITED","Address":"29-14-61, CVR COMPLEX, GOVERNOR PET, PRAKASAM ROAD","City":"VIJAYAWADA","State":"ANDHRA PRADESH","ContactNo":"/0866-2574757/0866-2576757/0866-2571122","Latitude":"16.5124957","Longitude":"80.6233211"},{"HospitalName":"ANKURA HOSPITAL FOR WOMEN AND CHILDREN","Address":"60-9-10/2A, 60-9-10/2B, CHENNUPATI SHYAM PRASAD STREET, 7TH LANE, PINNAMANENI POLY CLINIC ROAD","City":"VIJAYAWADA","State":"ANDHRA PRADESH","ContactNo":"/09053108108","Latitude":"16.5031344","Longitude":"80.649484"},{"HospitalName":"ANU HOSPITALS","Address":"KOVELAMUDIVARI STREET, SURYARAOPET","City":"VIJAYAWADA","State":"ANDHRA PRADESH","ContactNo":"/0866-2438881/0866-2438889","Latitude":"16.5117924","Longitude":"80.635385"},{"HospitalName":"ANU INSTITUTE OF NEURO & CARDIAC SCIENCES","Address":"3-20/14, MAIN ROAD, ENIKEPADU","City":"VIJAYAWADA","State":"ANDHRA PRADESH","ContactNo":"/0866-2843133/0866-2843733","Latitude":"16.5196674","Longitude":"80.6922926"},{"HospitalName":"ANU MY BABY HOSPITALS PRIVATE LIMITED","Address":"S NO 161/2B AND 161/2C, BESIDE D - MART, NH -16, ENIKEPADU","City":"VIJAYAWADA","State":"ANDHRA PRADESH","ContactNo":"/18004199888","Latitude":"16.5158464","Longitude":"80.7003319"},{"HospitalName":"APPLE HOSPITALS","Address":"#29-9-62, GOVINDARAJULU NAIDU STREET, OPP. SRI DEVI EYE HOSPITAL, NAKKALA ROAD","City":"VIJAYAWADA","State":"ANDHRA PRADESH","ContactNo":"/09032606099/09989058892/6302458575","Latitude":"16.5132274","Longitude":"80.6305522"},{"HospitalName":"ARUN KIDNEY CENTRE","Address":"29-23-9, TADEPALLIVARI STREET, SURYARAOPET, VIJAYAWADA","City":"VIJAYAWADA","State":"ANDHRA PRADESH","ContactNo":"/0866-2436056/09866782005","Latitude":"16.5134963","Longitude":"80.6352838"},{"HospitalName":"ASSURE MULTISPECIALITY HOSPITAL","Address":"D.NO.33-25-35/C, PUSHPA HOTEL ROAD, SURYARAOPET","City":"VIJAYAWADA","State":"ANDHRA PRADESH","ContactNo":"/0866-3510054","Latitude":"16.511897","Longitude":"80.6367671"},{"HospitalName":"BELEAF HOSPITALS","Address":"29-26-60, JAGADAMAVARI ST, SURYARAOPET","City":"VIJAYAWADA","State":"ANDHRA PRADESH","ContactNo":"/09491815556","Latitude":"16.5149177","Longitude":"80.6351566"},{"HospitalName":"BLOSSOMS RESEARCH CENTER AND HEALTH CARE VIJAYAWADA, LLP","Address":"36-8-45, WATER TANK ROAD, SIKHAMANI CENTRE","City":"VIJAYAWADA","State":"ANDHRA PRADESH","ContactNo":"/0866-6690999","Latitude":"16.5102442","Longitude":"80.6098647"},{"HospitalName":"CAPITAL HOSPITALS","Address":"15-177/1, MACHILIPATNAM ROAD","City":"VIJAYAWADA","State":"ANDHRA PRADESH","ContactNo":"/08662583666","Latitude":"16.4778792","Longitude":"80.7020359"},{"HospitalName":"CHAITANYA EYE HOSPITAL","Address":"NEAR SIDDHARTHA ARTS COLLEGE, OPP.MOTHER TERESA STATUE, TIKKLE ROAD","City":"VIJAYAWADA","State":"ANDHRA PRADESH","ContactNo":"/02475153/02485868/0866-2486198","Latitude":"16.5043103","Longitude":"80.6454689"},{"HospitalName":"CHARITHASRI HOSPITALS LTD","Address":"D.NO. 29-14-51, NEAR PUSHPA HOTEL, 5 NO ROUTE, PRAKASHAM ROAD","City":"VIJAYAWADA","State":"ANDHRA PRADESH","ContactNo":"/0866-2432350/0866-2432360/09246490910","Latitude":"16.5129714","Longitude":"80.6326653"},{"HospitalName":"CURIE CITY CANCER CENTRE","Address":"PADAVALAREVU, GUNADALA, VIJAYAWADA","City":"VIJAYAWADA","State":"ANDHRA PRADESH","ContactNo":"/0866-2435900/08179044666","Latitude":"16.5225482","Longitude":"80.6576623"},{"HospitalName":"DR RAMESH CARDIAC & MULTI SPECIALITY HOSPITAL LIMITED","Address":"RING ROAD, NEAR I.T.I COLLEGE, VIJAYAWADA","City":"VIJAYAWADA","State":"ANDHRA PRADESH","ContactNo":"/0866-2484800/09848672494/09848153334","Latitude":"16.5061743","Longitude":"80.6480153"},{"HospitalName":"DR. P.S INSTITUTE OF MEDICAL SCIENCE & RESEARCH FOUNDATION","Address":"NEAR NH-5, CHINOUTAPALLI","City":"VIJAYAWADA","State":"ANDHRA PRADESH","ContactNo":"/08676-257311 TO 17","Latitude":"16.6017766","Longitude":"80.7990185"},{"HospitalName":"DR. SIVA PRASAD HRUDAYALAYA","Address":"#74-1-21/1, SUPRIYA CROWN, NEAR AUTO NAGAR GATE, BANDRA ROAD, PATAMATA","City":"VIJAYAWADA","State":"ANDHRA PRADESH","ContactNo":"/0866-2452424,3591195/09849273634","Latitude":"16.4920835","Longitude":"80.6644541"},{"HospitalName":"GAAYATHRI CITY EYE HOSPITAL PVT LTD.","Address":"33-1-6, BELLAPU SOBHANADRI STREET, NEAR SEETARAMPURAM SIGNALS","City":"VIJAYAWADA","State":"ANDHRA PRADESH","ContactNo":"/09958957979","Latitude":"16.5098886","Longitude":"80.6354665"},{"HospitalName":"GIRIDHAR ENT HOSPITAL & LASER CENTRE","Address":"NEAR KALYAN KUTER LODGE, CHILUKU DURGAIAH STREET, SURYARAOPET","City":"VIJAYAWADA","State":"ANDHRA PRADESH","ContactNo":"/0866-2435194/09440172988","Latitude":"16.5134946","Longitude":"80.6312605"},{"HospitalName":"GLOBAL MULTISPECIALITY HOSPITAL","Address":"27-39-1, MG ROAD, VIJAYAWADA","City":"VIJAYAWADA","State":"ANDHRA PRADESH","ContactNo":"/0866-2571613/0866-2578854","Latitude":"16.609991","Longitude":"80.721442"},{"HospitalName":"HELP HOSPITAL","Address":"BEHIND VICTORIA MUSEUM, M.G.ROAD, VIJAYAWADA-2","City":"VIJAYAWADA","State":"ANDHRA PRADESH","ContactNo":"/0866-6615552","Latitude":"16.5098886","Longitude":"80.6354665"},{"HospitalName":"KAMINENI HEALTH CARE PRIVATE LIMITED","Address":"PORANKI RURAL, 100 FEET ROAD, NEW AUTONAGAR","City":"VIJAYAWADA","State":"ANDHRA PRADESH","ContactNo":"/0866-2463333","Latitude":"16.4956303","Longitude":"80.7014068"},{"HospitalName":"KRISHNA GASTRO & LIVER CENTRE AND SAFE HOSPITALS","Address":"PUSHPA HOTEL CENTRE, PRAKASAM ROAD","City":"VIJAYAWADA","State":"ANDHRA PRADESH","ContactNo":"/0866-2439999/0866-2737799","Latitude":"16.5118088","Longitude":"80.6387683"},{"HospitalName":"KV SHINE HOSPITALS PVT. LTD.","Address":"D NO:29-28/1-31, KOVELAMUDIVARI STREET, SURYRAOPET","City":"VIJAYAWADA","State":"ANDHRA PRADESH","ContactNo":"/07799944580/0866-2433325,26","Latitude":"16.5124967","Longitude":"80.6355007"},{"HospitalName":"LAKSHMI SANDHYA HEALTHCARE PVT LTD","Address":"29-13-90, KALESWARA RAO ROAD,  NEAR CENTRAL BANK OF INDIA","City":"VIJAYAWADA","State":"ANDHRA PRADESH","ContactNo":"/0866-2438956","Latitude":"16.5115347","Longitude":"80.6323133"},{"HospitalName":"LIBERTY HOSPITALS","Address":"PATAMATA, OPP.AUTO NAGAR BUS TERMINAL","City":"VIJAYAWADA","State":"ANDHRA PRADESH","ContactNo":"/0866-255488","Latitude":"16.4852649","Longitude":"80.6715317"},{"HospitalName":"MANVI HOSPITALS","Address":"#29-12-43, VENKATARATNAM STREET, 4TH LINE, NAKKALA ROAD, SURYARAOPET","City":"VIJAYAWADA","State":"ANDHRA PRADESH","ContactNo":"/09391176126","Latitude":"15.9276553","Longitude":"75.6403395"},{"HospitalName":"METRO SUPER SPECIALITY HOSPITALS","Address":"29-14-32, PRAKASHM RAOD, NAKKAL RAOD CROSS JUNCTION, SRYARAOPET","City":"VIJAYAWADA","State":"ANDHRA PRADESH","ContactNo":"/040-2442666/040-2442324","Latitude":"16.5098886","Longitude":"80.6354665"},{"HospitalName":"MJ NAIDU SUPERSPECIALITY HOSPITAL","Address":"NEAR PUSHPA HOTEL, SURYARAOPET, VIJAYAWADA","City":"VIJAYAWADA","State":"ANDHRA PRADESH","ContactNo":"/0866-2435555/09640133315","Latitude":"16.5110724","Longitude":"80.6380928"},{"HospitalName":"MODERN EYE HOSPITAL","Address":"DOOR NO. 29-19-39, DORNAKAL ROAD, SURYARAOPET, BEHIND KOTTAVENTENA HANUMAN TEMPLE","City":"VIJAYAWADA","State":"ANDHRA PRADESH","ContactNo":"/0866-2437009","Latitude":"16.5139842","Longitude":"80.6334218"},{"HospitalName":"MODERN RETINA CENTRE","Address":"29-27-5, OPP LANE TO SBI ZONAL OFFICE, KALESWARA RAO ROAD,SURYARAOPET, VIJAYAWADA","City":"VIJAYAWADA","State":"ANDHRA PRADESH","ContactNo":"/0866-2440337/09397977767","Latitude":"16.510514","Longitude":"80.635773"},{"HospitalName":"NAGARJUNA HOSPITALS LIMITED","Address":"KANURU, VIJAYAWADA","City":"VIJAYAWADA","State":"ANDHRA PRADESH","ContactNo":"/0822-2854701/09393795799/07386529147/09030803098","Latitude":"16.4912761","Longitude":"80.6891443"},{"HospitalName":"PRAVEEN CARDIAC CENTRE","Address":"32-9-18, ADHU GARDEN CENTRE, MOGALRAJPURAM","City":"VIJAYAWADA","State":"ANDHRA PRADESH","ContactNo":"/0866-2444440/0866-2444414/09948878877","Latitude":"16.5078568","Longitude":"80.6427715"},{"HospitalName":"PUJITHA HOSPITAL","Address":"59A-15-31, N.T.R CIRCLE, VIJAYAWADA","City":"VIJAYAWADA","State":"ANDHRA PRADESH","ContactNo":"/0866-2495622/09848112727","Latitude":"16.4976352","Longitude":"80.6585342"},{"HospitalName":"RAINBOW CHILDREN’S MEDICARE PVT. LTD","Address":"48-10-12/A, CURRENCY NAGAR, OPP. NTR HEALTH UNIVERSITY","City":"VIJAYAWADA","State":"ANDHRA PRADESH","ContactNo":"/0866-6669666","Latitude":"16.5169972","Longitude":"80.6720656"},{"HospitalName":"RAVI HOSPITAL","Address":"D. NO. 29-28/1-24, SARASWATHI OFFICE, KOVELAMUDI VARI STREET, SURYARAOPET","City":"VIJAYAWADA","State":"ANDHRA PRADESH","ContactNo":"/8099353535/08881838888/08881848888","Latitude":"16.5204549","Longitude":"80.5956551"},{"HospitalName":"RAVIS AMERICAN CANCER CARE","Address":"OPP SIDDHARTHA PUBLIC SCHOOL MAIN GATE, MOGALRAJPURAM","City":"VIJAYAWADA","State":"ANDHRA PRADESH","ContactNo":"/0866-2482000/0866-6667000","Latitude":"16.4989734","Longitude":"80.6521139"},{"HospitalName":"ROOPA ORTHOPAEDIC & MULTISPECIALITY HOSPITAL","Address":"73-5-3, RAMAYANAPU STREET, BANDAR ROAD, OPP.HIGH SCHOOL ROAD BUS STOP, PATAMATA","City":"VIJAYAWADA","State":"ANDHRA PRADESH","ContactNo":"/08008108333","Latitude":"16.4951657","Longitude":"80.6600798"},{"HospitalName":"SAGAR VASCULAR &DIABETIK FOOT CARE CENTRE","Address":"29-10-32, NARASIMHA RAO NAIDU STREET, SURYARAOPETA","City":"VIJAYAWADA","State":"ANDHRA PRADESH","ContactNo":"/0866-2440755","Latitude":"16.5116693","Longitude":"80.6353559"},{"HospitalName":"SATEESH GASTRO & LIVER CENTER","Address":"D.NO.29-14-37, 5 ROUT, PRAKASAM ROAD, SURYARAOPET","City":"VIJAYAWADA","State":"ANDHRA PRADESH","ContactNo":"/0866-2442348/07799039044","Latitude":"16.510545","Longitude":"80.563393"},{"HospitalName":"SENTINI HOSPITALS PRIVATE LIMITED","Address":"54-15-5 B & C, BESIDE VINAYAK THEATER, RING ROAD, VIJAYAWADA","City":"VIJAYAWADA","State":"ANDHRA PRADESH","ContactNo":"/0866-6465111/07730998114","Latitude":"16.5126534","Longitude":"80.6645973"},{"HospitalName":"SHREYAS ORTHO AND SKIN MULTISPECIALITY HOSPITAL","Address":"76-16-9/16, BESIDE URMILA NAGAR CHURCH, URMILA NAGAR, BHAVANIPURAM","City":"VIJAYAWADA","State":"ANDHRA PRADESH","ContactNo":"/091600355555/09193655555","Latitude":"16.5384197","Longitude":"80.5974245"},{"HospitalName":"SINGARI ENT HOSPITAL AND RESEARCH CENTRE PVT. LTD.","Address":"29-9-54, DEVI OILL MILL ROAD, SURYARAOPET, VIJAYAWADA","City":"VIJAYAWADA","State":"ANDHRA PRADESH","ContactNo":"/0866-2436236/09246222626/09290127313","Latitude":"16.5126561","Longitude":"80.6347135"},{"HospitalName":"SMART VISION EYE SPECIALITIES PVT LTD","Address":"29 - 28, 1-4, KOVELAMUDIVARI STREET,  SURYARAOPET","City":"VIJAYAWADA","State":"ANDHRA PRADESH","ContactNo":"/09156098814/09049056305","Latitude":"16.5107498","Longitude":"80.63495"},{"HospitalName":"SOWJANYA HOSPITALS","Address":"D.NO.29-23-23,TADEPALLI VARI STREET, SURYARAOPET","City":"VIJAYAWADA","State":"ANDHRA PRADESH","ContactNo":"/0866-6652111/0866-2432227","Latitude":"16.5135697","Longitude":"80.6355164"},{"HospitalName":"SRI BHAVANI HOSPITAL","Address":"75-7-29, NAGARJUNA STREET","City":"VIJAYAWADA","State":"ANDHRA PRADESH","ContactNo":"/0866-2411499,2411599/09705988776/07815810610","Latitude":"16.5246254","Longitude":"80.5922003"},{"HospitalName":"SRI GAYATRI SUPER SPECIALITY HOSPITALS","Address":"KOTHAVANTHENA STREET, ACHAMAMBA STREET, DURGA AGRAHARAM","City":"VIJAYAWADA","State":"ANDHRA PRADESH","ContactNo":"/0886-6631199,2434799","Latitude":"16.5148239","Longitude":"80.6333115"},{"HospitalName":"SRI SWARUPA SUPER SPECIALITY HOSPITAL","Address":"29-13-44, KALESWARA RAO ROAD , NEAR PUSHPA HOTEL","City":"VIJAYAWADA","State":"ANDHRA PRADESH","ContactNo":"/08886461236","Latitude":"16.5380465","Longitude":"80.6132646"},{"HospitalName":"SRIKARA HOSPITALS","Address":"40-1-65, NOORANI PLAZA, OPP. EENADU OFFICE, NEAR BENZ CIRCLE","City":"VIJAYAWADA","State":"ANDHRA PRADESH","ContactNo":"/0866-3312345","Latitude":"16.4989734","Longitude":"80.6521139"},{"HospitalName":"ST.ANN'S HOSPITAL","Address":"NO.38-1-28/2, AMERICAN HOSPITAL ROAD, OPP. PWD GROUND","City":"VIJAYAWADA","State":"ANDHRA PRADESH","ContactNo":"/02573675","Latitude":"16.5047158","Longitude":"80.6266702"},{"HospitalName":"SUNRISE HOSPITALS","Address":"D.NO. 33-25-35. OPP. CORPORATION BANK, BELLAPU SOBHANADRI ROAD, PUSHPA HOTEL CENTRE, SURYARAOPETA","City":"VIJAYAWADA","State":"ANDHRA PRADESH","ContactNo":"/0866-2434646","Latitude":"16.5128365","Longitude":"80.6392622"},{"HospitalName":"SVARA SUPER SPECIALITY HOSPITAL","Address":"D.NO :23-5/1-1B, BRTS ROAD, RAJAVARI VEEDHI, S.N.PURAM","City":"VIJAYAWADA","State":"ANDHRA PRADESH","ContactNo":"/09505494888","Latitude":"16.5209364","Longitude":"80.6335622"},{"HospitalName":"TIME HOSPITALS","Address":"11-150, ASHOK NAGAR BUS STOP, M.G. ROAD","City":"VIJAYAWADA","State":"ANDHRA PRADESH","ContactNo":"/0866-2555526/09652372999/08008539549","Latitude":"13.0672409","Longitude":"80.213147"},{"HospitalName":"TRINETRA EYE HOSPITAL","Address":"#14-23, MACHILIPATNAM ROAD, PORANKI","City":"VIJAYAWADA","State":"ANDHRA PRADESH","ContactNo":"/08977188144","Latitude":"16.4765581","Longitude":"80.7031519"},{"HospitalName":"TRUST HOSPITAL","Address":"BESIDE SUB-REGISTER OFFICE, KALANAGAR, NEAR BENZ CIRCLE, VIJAYAWADA","City":"VIJAYAWADA","State":"ANDHRA PRADESH","ContactNo":"/0866-2470909/0866-2475656/09393939300","Latitude":"16.4989734","Longitude":"80.6521139"},{"HospitalName":"USHA CARDIAC CENTRE LTD","Address":"39-2-11, PITCHIAH STREED LABBIPET, VIJAYAWADA","City":"VIJAYAWADA","State":"ANDHRA PRADESH","ContactNo":"/0866-2480404/09441439110","Latitude":"16.501332","Longitude":"80.642394"},{"HospitalName":"VASAN EYE CARE HOSPITAL","Address":"29-14-44, PRAKASAM ROAD, NEAR HOTEL PUSHPA, SURYARAOPET, VIJAYAWADA","City":"VIJAYAWADA","State":"ANDHRA PRADESH","ContactNo":"/0866-3989000","Latitude":"16.509639","Longitude":"80.6368103"},{"HospitalName":"VGR DIABETES SPECIALITIES HOSPITAL","Address":"40-5-19/18/B, A.S RAMARAO ROAD, MOGHALRAJPURAM","City":"VIJAYAWADA","State":"ANDHRA PRADESH","ContactNo":"/0866-2485933/0866-2485944/08978433327","Latitude":"16.5064616","Longitude":"80.6488555"},{"HospitalName":"VIJAY ORTHOPEDIC & ACCIDENT CARE","Address":"29-5-7, CHERUKU PALLI VARI STREET, NEAR SAPTHAGIRI COLLEGE, GOVERNORPET","City":"VIJAYAWADA","State":"ANDHRA PRADESH","ContactNo":"/0866-6633108","Latitude":"16.512533","Longitude":"80.631455"},{"HospitalName":"VIJAYA SUPER SPECIALITY HOSPITAL","Address":"D.N0. 29-26-92A, NEAR SWATHI PRESS, BOYAPATIVARI STREET, SURYARAOPET","City":"VIJAYAWADA","State":"ANDHRA PRADESH","ContactNo":"/0866-2435300/09290679055","Latitude":"16.5107975","Longitude":"80.6323149"},{"HospitalName":"VIJAYAWADA NURSING HOME & POLY CLINIC PVT LTD","Address":"D.NO-29-23-34, KALESWARARAO ROAD, SURYARAPETA","City":"VIJAYAWADA","State":"ANDHRA PRADESH","ContactNo":"/0866-2433047","Latitude":"16.511323","Longitude":"80.6324275"},{"HospitalName":"YALAMANCHI HOSPITALS AND RESEARCH CENTRES PVT LTD","Address":"29-7-44, DIABETIC CARE CENTRE, VENKATARATNAM ST, SURYARAOPET, VIJAYAWADA","City":"VIJAYAWADA","State":"ANDHRA PRADESH","ContactNo":"/0866-2431220/09841132230/09848252235","Latitude":"16.5119791","Longitude":"80.6342464"}],[{"HospitalName":"A PLUS HOSPITALS","Address":"D NO:31-12-8, KURMANNAPALEM","City":"VISAKHAPATNAM","State":"ANDHRA PRADESH","ContactNo":"/07901398314","Latitude":"17.6881381","Longitude":"83.1641867"},{"HospitalName":"A1 LAPAROSCOPY HOSPITAL","Address":"14-25-11/3, Z.P.ROAD, MAHARANIPETA","City":"VISAKHAPATNAM","State":"ANDHRA PRADESH","ContactNo":"/09493382437","Latitude":"17.7106953","Longitude":"83.3055641"},{"HospitalName":"AAYUSHMAN HOSPITAL","Address":"D.NO: 17-1-1, OPPOSITE KGH OUT GATE, MAHARANIPETA","City":"VISAKHAPATNAM","State":"ANDHRA PRADESH","ContactNo":"/0891-2558888","Latitude":"17.7108032","Longitude":"83.3101828"},{"HospitalName":"ABC HOSPITALS","Address":"16-1-13, KGH TO BEACH TOWN, OPP COSTAL BATTERY, MAHARANIPETA","City":"VISAKHAPATNAM","State":"ANDHRA PRADESH","ContactNo":"/0891-2500089","Latitude":"17.6868159","Longitude":"83.2184815"},{"HospitalName":"ADITHYA MULTICARE HOSPITAL","Address":"DOOR NO: 8-1-33, OPPOSITE KGH OP GATE","City":"VISAKHAPATNAM","State":"ANDHRA PRADESH","ContactNo":"/0891-2522044/0891-2522055","Latitude":"17.7096038","Longitude":"83.3051905"},{"HospitalName":"AKSHAYA HOSPITAL","Address":"D. NO. 43-9-201, SY NO.321-323, RAILWAY NEW COLONY, SUBBALAKSHMI NAGAR","City":"VISAKHAPATNAM","State":"ANDHRA PRADESH","ContactNo":"/08886582221/0891-2523699","Latitude":"16.2828713","Longitude":"80.4508727"},{"HospitalName":"AMMA HOSPITAL","Address":"1-44-1/2, HIG-13/1, NEAR SAI BABA TEMPLE, VENKOJIPALEM, SECTOR-1, MVP COLONY","City":"VISAKHAPATNAM","State":"ANDHRA PRADESH","ContactNo":"/09032489337","Latitude":"17.7365837","Longitude":"83.3388608"},{"HospitalName":"AMULYA HOSPITAL","Address":"14-1-3/1, NOWROJI ROAD, OPPOSITE MORE SUPER MARKET","City":"VISAKHAPATNAM","State":"ANDHRA PRADESH","ContactNo":"/0891-2543431/0891-2743431/07729986661/07729974441","Latitude":"17.7106864","Longitude":"83.313465"},{"HospitalName":"ANIL NEERUKONDA HOSPITAL","Address":"OPP: THREE POLAMAMBA TEMPLES,SANGIVALASA, TAGARAPUVALASA","City":"VISAKHAPATNAM","State":"ANDHRA PRADESH","ContactNo":"/0891-2543662","Latitude":"17.9222353","Longitude":"83.4153215"},{"HospitalName":"ANNAPOORNA HOSPITAL","Address":"D.NO. 47-9-32, 3RD LANE, DWARKA NAGAR","City":"VISAKHAPATNAM","State":"ANDHRA PRADESH","ContactNo":"/0891-2755875","Latitude":"17.7274208","Longitude":"83.3048038"},{"HospitalName":"ANUPAMA SURGICAL AND CHILDRENS HOSPITAL","Address":"47-9-21, 3RD LINE, DWARKA NAGAR","City":"VISAKHAPATNAM","State":"ANDHRA PRADESH","ContactNo":"/0891-6662122/0891-2748811/09848193004","Latitude":"17.7274201","Longitude":"83.3062416"},{"HospitalName":"APOLLO HOSPITALS","Address":"WALTAIR MAIN ROAD","City":"VISAKHAPATNAM","State":"ANDHRA PRADESH","ContactNo":"/0891-2727272/09866462277","Latitude":"17.7170847","Longitude":"83.3092112"},{"HospitalName":"APOORVA HEALTH SERVICES PVT. LTD.","Address":"NO.50-17-62, RAJENDRA NAGAR, OPP. RELIANCE PETROL BUNK, DWARAKANAGAR","City":"VISAKHAPATNAM","State":"ANDHRA PRADESH","ContactNo":"/0891-2701258","Latitude":"17.7301365","Longitude":"83.3053853"},{"HospitalName":"ASIAN INSTITUTE OF NEPHROLOGY AND UROLOGY","Address":"17-11-12, 1ST LANE, DWARAKA NAGAR, NEAR DIAMOND PARK","City":"VISAKHAPATNAM","State":"ANDHRA PRADESH","ContactNo":"/0891-6763333,2536333","Latitude":"17.7260173","Longitude":"83.3019906"},{"HospitalName":"BABA HOSPITAL","Address":"15-14-2, NEAR COLLECTORATE JUNCTION","City":"VISAKHAPATNAM","State":"ANDHRA PRADESH","ContactNo":"/0891-6645664","Latitude":"17.7106864","Longitude":"83.313465"},{"HospitalName":"BHANU EYE CARE CENTRE","Address":"NH-5 MAIN ROAD, GAJUWAKA, VISAKHAPATNAM","City":"VISAKHAPATNAM","State":"ANDHRA PRADESH","ContactNo":"/0891-2517083","Latitude":"17.6850754","Longitude":"83.2104426"},